brand,dealer_name,address,city,state_region,country,postal_code,latitude,longitude,phone,fax,email,website,dealer_type,services_offered,dealer_id,sap_code,source
Lamborghini Trattori; SAME,EZ AGRAR E.GEN.,SALZBURGERSTRASSE 38,LINZ,Austria,AT,4020,48.2706206,14.3111044,0043 732 34 72 660,,w.postl@ezagrar.at,,Importer,PARTS; SERVICE; TRACTORS,C4855X,0010000113,lamborghini_api
Lamborghini Trattori,N.V. HOCKE' S.A.,ALPHONSE GOSSETLAAN 13,DILBEEK (GROOT BIJGAARDEN),Belgium,BE,B-1702,50.8724299,4.2777669,00 32-2-4672811,,ann.hemels@hocke.be,https://www.hocke.be/,Importer,PARTS; SERVICE,C555X,0010001486,lamborghini_api
Lamborghini Trattori,AGROMACHINA  GROUP LTD,DIANA STREET N. 17,MONTANA  - BULGARIA -,Bulgaria,BG,3400,43.4113,23.2389,+35928431026,,info@agromachinagroup.com,www.agromachinagroup.com,Importer,PARTS; SERVICE; TRACTORS; AGRICENTER,C5156X,0010000413,lamborghini_api
Lamborghini Trattori,AGROMACHINA GROUP Ltd. Pazardzik,24 Doctor Nikola Lambrev street,Pazardzhik,Bulgaria,BG,4400,42.1814,24.3227,-,,info@agromachinagroup.com,www.agromachinagroup.com,Importer branch,PARTS; SERVICE; TRACTORS; AGRICENTER,C5155X,0010000413,lamborghini_api
Lamborghini Trattori,AGROMACHINA GROUP Ltd. Silistra,Industrial Zone,Kalipetrovo,Bulgaria,BG,7539,44.0714,27.2541,-,,info@agromachinagroup.com,www.agromachinagroup.com,Importer branch,PARTS; SERVICE; TRACTORS; AGRICENTER,C5154X,0010000413,lamborghini_api
Lamborghini Trattori,AGROMACHINA GROUP Ltd. Sofia,13 Parva Balgarska Armia street,Sofia,Bulgaria,BG,1220,42.7247,23.3246,35928431026,,info@agromachinagroup.com,www.agromachinagroup.com,Importer branch,PARTS; SERVICE; TRACTORS; AGRICENTER,C5152X,0010000413,lamborghini_api
Lamborghini Trattori,AGROMACHINA GROUP Ltd. Yambol,18 Evropa Blvd.,Yambol,Bulgaria,BG,8600,42.495,26.4847,-,,info@agromachinagroup.com,www.agromachinagroup.com,Importer branch,PARTS; SERVICE; TRACTORS; AGRICENTER,C5153X,0010000413,lamborghini_api
SAME,AB Maschinentechnik AG,"Grundstrasse 6, Ganterschwil 9608",Ganterschwil,,CH,9608,47.381228,9.087111,071 983 28 66,,,www.ab-maschinentechnik.ch,,PARTS; SERVICE; TRACTORS; AGRICENTER,2602,,same_nuxt_de-ch
SAME,AGRIMONTANAIRE SARL,"RUE DE LA CURE 12, THIERRENS 1410",THIERRENS,,CH,1410,46.705468,6.758351,021 905 31 54,,,www.agrimontanaire.ch,,PARTS; SERVICE; TRACTORS; AGRICENTER,2489,,same_nuxt_de-ch
SAME,ALPHATEC SA,"Route de Senèdes 16, SENEDES 1724",SENEDES,,CH,1724,46.749893,7.159941,026 413 38 50,,,,,PARTS; SERVICE; TRACTORS; AGRICENTER,2685,,same_nuxt_de-ch
SAME,AMSTAD SERVICE GMBH,"RIGISTRASSE 4, DIERIKON 6036",DIERIKON,,CH,6036,47.100880,8.388842,041 450 20 18,,,www.amstadservice.ch,,PARTS; SERVICE; TRACTORS; AGRICENTER,2363,,same_nuxt_de-ch
SAME,BAB TECHNIK AG,"FLURHOFSTRASSE 11, BUOCHS 6374",BUOCHS,,CH,6374,46.977272,8.413175,041 620 44 64,,,www.bab-technik.ch,,PARTS; SERVICE; TRACTORS; AGRICENTER,2385,,same_nuxt_de-ch
SAME,BACHMANN AGROTECH AG,"Herdmatten, BENZENSCHWIL 5636",BENZENSCHWIL,,CH,5636,47.245655,8.358935,056 677 70 50,,,www.rubach.ch,,PARTS; SERVICE; TRACTORS; AGRICENTER,2441,,same_nuxt_de-ch
SAME,Dätwyler Agro GMBH,"Stammrain 15, Staffelbach 5053",Staffelbach,,CH,5053,47.283174,8.044533,062 721 11 35,,,,,PARTS; SERVICE; TRACTORS; AGRICENTER,2779,,same_nuxt_de-ch
SAME,E. WYTTENBACH AG,"LINDENSTRASSE 3, NEUENEGG 3176",NEUENEGG,,CH,3176,46.894946,7.304883,031 741 00 71,,,www.wyttenbachag.ch,,PARTS; SERVICE; TRACTORS; AGRICENTER,2492,,same_nuxt_de-ch
SAME,EGLI GUIDO,"STATION 8, LUETISBURG-STATION 9601",LUETISBURG-STATION,,CH,9601,47.393682,9.112340,071 983 36 10,,,www.egli-landmaschinen.ch,,PARTS; SERVICE; TRACTORS; AGRICENTER,2387,,same_nuxt_de-ch
SAME,FRANZ JAEGGI AG,"NEUFELDWEG 1, NEUENDORF 4623",NEUENDORF,,CH,4623,47.304158,7.792823,062 398 22 17,,,www.jaeggi-ag.com,,PARTS; SERVICE; TRACTORS; AGRICENTER,2392,,same_nuxt_de-ch
SAME,GLT HALDIMANN AG,"AM RAIN 4, WALPERSWIL 3272",WALPERSWIL,,CH,3272,47.059965,7.229205,032 396 14 39,,,www.glt-haldimann.ch,,PARTS; SERVICE; TRACTORS; AGRICENTER,2580,,same_nuxt_de-ch
SAME,HEINIGER LANDTECHNIK AG,"EBNET 35, EBNET 6163",EBNET,,CH,6163,47.021713,8.077316,041 480 13 75,,,,,PARTS; SERVICE; TRACTORS; AGRICENTER,2465,,same_nuxt_de-ch
SAME,HERRMANN UND ZULLIGER AG,"HAUPTSTRASSE 47, LEIMISWIL 4935",LEIMISWIL,,CH,4935,47.151435,7.770160,062 965 39 79,,,,,PARTS; SERVICE; TRACTORS; AGRICENTER,2418,,same_nuxt_de-ch
SAME,HILTBRUNNER LANDMASCHINEN AG,"HEGEN 28, ERISWIL 4952",ERISWIL,,CH,4952,47.073266,7.869924,062 966 19 14,,,,,PARTS; SERVICE; TRACTORS; AGRICENTER,2905,,same_nuxt_de-ch
SAME,Hirschi Lustenberger Technik AG,"Hauptstrasse 48, Escholzmatt 6182",Escholzmatt,,CH,6182,46.920646,7.940426,+41 41 486 13 77,,,,,PARTS; SERVICE; TRACTORS; AGRICENTER,6039,,same_nuxt_de-ch
SAME,KUNZ MAX,"PFANNENSTIELSTR. 26, EGG 8132",EGG,,CH,8132,47.300110,8.686841,044 984 05 87,,,,,PARTS; SERVICE; TRACTORS; AGRICENTER,2479,,same_nuxt_de-ch
SAME,LANDMASCHINEN ROTH GMBH,"STAATSSTRASSE 4, HEIMENSCHWAND 3615",HEIMENSCHWAND,,CH,3615,46.824700,7.685580,+41 33 453 12 60,,,,,PARTS; SERVICE; TRACTORS; AGRICENTER,2720,,same_nuxt_de-ch
SAME,ROTACH LANDMASCHINEN,"LEO JUNG-STRASSE 7, ZUCKENRIET 9526",ZUCKENRIET,,CH,9526,47.483501,9.162407,071 947 13 77,,,,,PARTS; SERVICE; TRACTORS; AGRICENTER,2388,,same_nuxt_de-ch
SAME,RUDER TRAKTOREN AG,"HAUPTSTR. 38, ZIHLSCHLACHT 8588",ZIHLSCHLACHT,,CH,8588,47.520620,9.259439,071 422 22 05,,,,,PARTS; SERVICE; TRACTORS; AGRICENTER,2400,,same_nuxt_de-ch
SAME,S. MORISOLI & FIGLI SA,"EL STRADUN 33, MONTE CARASSO 6513",MONTE CARASSO,,CH,6513,46.188394,8.996462,091 825 16 79,,,www.morisoli.ch,,PARTS; SERVICE; TRACTORS; AGRICENTER,2706,,same_nuxt_de-ch
SAME,SCHMID + MAEGERT AG,"HAUPTSTRASSE 100, REICHENBACH 3713",REICHENBACH,,CH,3713,46.612126,7.671547,033 676 70 70,,,www.s-m.ch,,PARTS; SERVICE; TRACTORS; AGRICENTER,2817,,same_nuxt_de-ch
SAME,SCHWITTER LANDMASCHINEN AG,"ZEUGHAUSSTRASSE 30, MELS 8887",MELS,,CH,8887,47.055834,9.410147,081 723 83 22,,,,,PARTS; SERVICE; TRACTORS; AGRICENTER,2490,,same_nuxt_de-ch
SAME,SONDER SA,"PLAZ 1, MON 7458",MON,,CH,7458,46.650175,9.564295,081 681 17 55,,,www.sonder-sa.ch,,PARTS; SERVICE; TRACTORS; AGRICENTER,2401,,same_nuxt_de-ch
SAME,STAUB AG,"DORFSTRASSE 16, HAGENBUCH 8523",HAGENBUCH,,CH,8523,47.521600,8.890090,052 364 27 64,,,,,PARTS; SERVICE; TRACTORS; AGRICENTER,2391,,same_nuxt_de-ch
SAME,Scherer Mechanik GmbH,"Via Suot Crasta 4, Celerina 7505",Celerina,,CH,7505,46.510264,9.857413,079 241 27 02,,,www.scherer-mechanik.ch,,PARTS; SERVICE; TRACTORS; AGRICENTER,2480,,same_nuxt_de-ch
SAME,Schneider Landmaschinen AG,"ST. GALLERSTRASSE 9, MATZINGEN 9548",MATZINGEN,,CH,9548,47.518727,8.935200,052 376 16 95,,,,,PARTS; SERVICE; TRACTORS; AGRICENTER,2390,,same_nuxt_de-ch
SAME,Schweri Landmaschinen AG,"REBENSTRASSE 59, WISLIKOFEN 5463",WISLIKOFEN,,CH,5463,47.557400,8.364600,056 250 53 00,,,,,PARTS; SERVICE; TRACTORS; AGRICENTER,2712,,same_nuxt_de-ch
SAME,Suter Agrartechnik AG,"Alte Landstrasse 1a, Sins 5643",Sins,,CH,5643,47.186668,8.399053,041 788 08 10,,,,,PARTS; SERVICE; TRACTORS; AGRICENTER,6046,,same_nuxt_de-ch
SAME,T. DIETHELM LANDTECHNIK AG,"ALTERSHEIMSTRASSE 25, GALGENEN 8854",GALGENEN,,CH,8854,47.179641,8.870462,055 440 34 64,,,www.tdiethelm.swiss,,PARTS; SERVICE; TRACTORS; AGRICENTER,2691,,same_nuxt_de-ch
SAME,TRUNIGER LANDMASCHINEN AG,"LANGENSTEIG, DIETFURT 9615",DIETFURT,,CH,9615,47.337479,9.083972,071 980 04 77,,,,,PARTS; SERVICE; TRACTORS; AGRICENTER,2714,,same_nuxt_de-ch
SAME,UNTERNAEHRER KURT AG,"HEILIGKREUZSTR. 4, HASLE 6166",HASLE,,CH,6166,46.979521,8.053988,041 480 36 72,,,,,PARTS; SERVICE; TRACTORS; AGRICENTER,2403,,same_nuxt_de-ch
SAME,VOELLMIN LANDTECHNIK AG,"HEMMIKERSTR. 51, ORMALINGEN 4466",ORMALINGEN,,CH,4466,47.471988,7.881814,061 985 86 66,,,http://www.voellminag.ch/,,PARTS; SERVICE; TRACTORS; AGRICENTER,4303,,same_nuxt_de-ch
Lamborghini Trattori; Huerlimann,WALKER FAHRZEUGTECHNIK AG,FURKASTRASSE 140B,NATERS,,CH,3904,46.3277143,8.01074079,+41 27 927 30 58,,info@garage-walker.ch,www.garage-walker.ch,Authorized Workshop,PARTS; SERVICE; AGRICENTER,C383X,0010001319,lamborghini_api
SAME,WYSS STEPHAN LANDTECHNIK GMBH,"SOLOTHURNERSTRASSE 29, BAETTERKINDEN 3315",BAETTERKINDEN,,CH,3315,47.136710,7.537390,032 665 33 35,,,,,PARTS; SERVICE; TRACTORS; AGRICENTER,2405,,same_nuxt_de-ch
SAME,Zuberbühler Landmaschinen AG,"HAUPTSTRASSE 4, SCHOENENGRUND 9105",SCHOENENGRUND,,CH,9105,47.327136,9.218935,071 361 12 24,,,,,PARTS; SERVICE; TRACTORS; AGRICENTER,2406,,same_nuxt_de-ch
Deutz-Fahr; Lamborghini Trattori; SAME,SARGENT AGRICOLA LTDA,AV. GENERAL VELASQUEZ,SAN BERNARDO,,CL,8050000,-33.5379,-70.7074,-,,rmaldonado@sargentchile.cl,,Importer,,C2421X,0010001952,lamborghini_api
Deutz-Fahr; Lamborghini Trattori; SAME,SATURNIA S.A.,1 km Este de Plaza del Sol,Curridabat,Costa Rica,CR,01000,9.9198182,-84.0357417,+506 2280 4060,,gsansonetti@saturniacr.com,https://saturnia.sdfdealer.com/,Importer,PARTS; SERVICE; TRACTORS,C4883X,0010000144,lamborghini_api
Deutz-Fahr; Lamborghini Trattori; SAME,Agrartechnik Helmer GmbH & Co.KG,Salbeiweg 3c,Rain/Lech,Bayern,DE,86641,47.686,9.82909,09090 922 85 35,,info@agrartechnik-helmer.de,,Independent workshop,PARTS,C32C,0020028157,lamborghini_api
Deutz-Fahr; Lamborghini Trattori; SAME,Andreas Blendl Land- & Baumaschinentechnik,Kirchberg 10,Hohenthann,Bayern,DE,84098,48.5511,11.9946,08784 361 01 21,,info@blendl-landtechnik.de,,Independent workshop,PARTS; SERVICE,C122C,0020025410,lamborghini_api
Deutz-Fahr; Lamborghini Trattori; SAME,Armin Schuster Landtechnik GmbH & Co.KG,Moosfeldstr. 6A,Ettringen,Bayern,DE,86833,48.1301014,10.6593708,-,,info@schuster-landtechnik.de,www.schuster-landtechnik.de,Affiliated Dealer,PARTS; SERVICE; TRACTORS,C4294X,0020008782,lamborghini_api
SAME,Auto-Traktor-Bretschneider e.K.,"MITTLERE HAUPTSTRASSE 32, GLASHUETTE OT DITTERSDORF 01768",GLASHUETTE OT DITTERSDORF,,DE,01768,50.832188,13.806525,035053 487 25,,,www.meisterhaft-bretschneider.de,,PARTS; SERVICE; TRACTORS,1288,,same_nuxt_de-de
Deutz-Fahr; Lamborghini Trattori; SAME,BAASCH ROLF MASCHINEN + SERVICE,SCHULSTRASSE 37,HORST,,DE,25358,53.8157409,9.609115,04126 3923 0,,info@baasch-maschinen.de,www.baasch-maschinen.de,Dealer,PARTS; SERVICE; TRACTORS,C5247X,0010000505,lamborghini_api
Deutz-Fahr; Lamborghini Trattori; SAME,BAG Hochdorf,Am Bahnhof 2,Hochdorf,Baden-Württemberg,DE,88454,48.0101972,9.7620893,07355/9325-0,,info@bag-bad-waldsee.de,https://www.bag-bad-waldsee.de/essendorf/,Dealer Branch,PARTS; SERVICE; TRACTORS,C3555X,0010003165,lamborghini_api
Deutz-Fahr; Lamborghini Trattori; SAME,BAUWESTA und Landmaschinen GmbH,Am Flugplatz,Langen Trechow,Mecklenburg-Vorpommern,DE,18246,53.8844,11.9352,038461 59325,,ronny.weber@bauwesta.de,www.bauwesta.de,Dealer Branch,PARTS; SERVICE; TRACTORS,C910X,0010000639,lamborghini_api
Deutz-Fahr; Lamborghini Trattori; SAME,BERTHOLD KNIELE LANDTECHNIK,Buchauer Straße 6,Bad Schussenried,Baden-Württemberg,DE,88427,48.0089271,9.65314199,07583 2230,,kniele.landtechnik@gmail.com,www.kniele-landtechnik.de,Dealer,PARTS; SERVICE; TRACTORS,C5278X,0010000535,lamborghini_api
Deutz-Fahr; Lamborghini Trattori; SAME,BODENMUELLER LANDTECHNIK GMBH,OCHSENHAUSER STR. 19,REINSTETTEN,,DE,88416,48.1081339,9.9471138,07352 2488,,alfred@bodenmueller-landtechnik.de,www.bodenmueller-landtechnik.de,Dealer,PARTS; SERVICE; TRACTORS,C5431X,0010004048,lamborghini_api
Deutz-Fahr; Lamborghini Trattori; SAME; GreenPro,Bau- u. Heimwerkermarkt Sailer,MAX-PLANCK-STR. 1,LANDSBERG,,DE,86899,48.0627754,10.8608484,08191 9275 0,,baumarkt-sailer@gmx.de,www.baumarkt-sailer.de,Dealer,PARTS; SERVICE; TRACTORS,C5393X,0010000634,lamborghini_api
SAME,BauFa Bau-Fahrzeugtechnik Erxleben GmbH,"Hörsinger Str. 16, Erxleben 39343",Erxleben,,DE,39343,52.454200,11.003000,039052 316,,,,,TRACTORS,3001,,same_nuxt_de-de
Lamborghini Trattori; SAME,Benz Landtechnik,BRUNNENGASSE 7+9,SULZBURG - LAUFEN,,DE,79295,47.8404625,7.6850351,07634/8258,,info@benz-metallbau.com,www.benz-landtechnik.de,Authorized Workshop,PARTS; SERVICE; TRACTORS,C5473X,0010000713,lamborghini_api
Deutz-Fahr; Lamborghini Trattori; SAME,Böckl Landmaschinen,SUEDBAHNHOFSTRASSE 6,ERBENDORF,Bayern,DE,92681,49.8346899,12.05705,09682 914 42,,boecklherbert@web.de,www.boeckl-landtechnik.de,Affiliated Dealer,PARTS; SERVICE; TRACTORS,C334C,0020005452,lamborghini_api
SAME,CLEMENS HOPING GMBH,"BAKUMER STR. 2A, BAKUM 49456",BAKUM,,DE,49456,52.722813,8.174493,04446 96828 0,,,www.hoping.de,,TRACTORS,2491,,same_nuxt_de-de
Deutz-Fahr; Lamborghini Trattori; SAME,D. Lankhorst & CO. GmbH Neuenkirchen,Uhlenbrock 3,Neuenkirchen / Bramsche,Niedersachen,DE,49586,52.4224543,7.8473057,05465 2031017,,jan@fjhofschroeer.de,www.fjhofschroeer.de,Dealer Branch,PARTS; SERVICE; TRACTORS,C1003X,0010000549,lamborghini_api
Deutz-Fahr; Lamborghini Trattori; SAME; GreenPro,D. Lankhorst & Co. GmbH Emsbüren,Darwinstraße 1,Emsbüren,Niedersachsen,DE,48488,52.4092,7.31956,05903 21792 0,,emsbueren@lankhorst.de,www.lankhorst.de,Dealer Branch,PARTS; SERVICE; TRACTORS,C5297X,0010000549,lamborghini_api
Deutz-Fahr; Lamborghini Trattori; SAME; GreenPro,D. Lankhorst & Co. GmbH Klein Berßen,Haselünnerstraße 6,Klein Berßen,Niedersachsen,DE,49777,52.7675868,7.4578795,05965 - 217,,klb@lankhorst.de,www.lankhorst.de,Dealer Branch,PARTS; SERVICE; TRACTORS; AGRICENTER,C5294X,0010000549,lamborghini_api
Deutz-Fahr; Lamborghini Trattori; SAME; GreenPro,D. Lankhorst & Co. GmbH Neuenhaus,UELSENER STRASSE 31,NEUENHAUS,,DE,49828,52.4957811,6.9545987,05941 9233 0,,heinz.arns@lankhorst.de,www.lankhorst.de,Dealer,PARTS; SERVICE; TRACTORS; AGRICENTER,C5298X,0010000549,lamborghini_api
Deutz-Fahr; Lamborghini Trattori; SAME; GreenPro,D. Lankhorst & Co. GmbH Rosendahl,Midlicherstraße 64,Rosendahl-Osterwick,Niedersachsen,DE,48720,52.0120707,7.1970671,02547 282,,rosendahl@lankhorst.de,www.lankhorst.de,Dealer Branch,PARTS; SERVICE; TRACTORS,C5296X,0010000549,lamborghini_api
Deutz-Fahr; Lamborghini Trattori; SAME; GreenPro,D. Lankhorst & Co. GmbH Thüle,Sandkamp 14,Friesoythe/Mittelsten-Thüle,Niedersachsen,DE,26169,52.9598953,7.92694989,04495 68997 0,,thuele@lankhorst.de,www.lankhorst.de,Dealer Branch,PARTS; SERVICE; TRACTORS,C5295X,0010000549,lamborghini_api
Deutz-Fahr; Lamborghini Trattori; SAME,Dipl. Ing. Tietjen GmbH,Calle 40,Bücken,Niedersachsen,DE,27333,52.7755569,9.0836531,04251 93 40 14,,info@tietjengmbh.de,,Affiliated Dealer,PARTS; SERVICE,C4553X,0020014698,lamborghini_api
Deutz-Fahr; Lamborghini Trattori; SAME; GreenPro,Dorn GmbH - Bruckberg,KREUT 6,BRUCKBERG,,DE,84079,48.5706286,12.0157316,08704 9295 0,,info@dorn-landtechnik.de,http://www.landtechnik-dorn.de,Dealer,PARTS; SERVICE; TRACTORS,C5480X,0010000718,lamborghini_api
Deutz-Fahr; Lamborghini Trattori; SAME; GreenPro,Dorn GmbH - Schierling,Allersdorfer Straße 13,Schierling,Bayern,DE,84069,48.8327,12.1399,09451 94881 0,,schierling@dorn-landtechnik.de,http://www.landtechnik-dorn.de/,Dealer Branch,PARTS; SERVICE; TRACTORS,C5478X,0010000718,lamborghini_api
Deutz-Fahr; Lamborghini Trattori; SAME; GreenPro,Dorn GmbH - Straubing,Philipp-Reis-Straße 14,Straubing,Bayern,DE,94315,48.8884884,12.6238647,09421/31000,,straubing@dorn-landtechnik.de,www.landtechnik-dorn.de/,Dealer Branch,PARTS; SERVICE; TRACTORS,C1997X,0010000718,lamborghini_api
Deutz-Fahr; Lamborghini Trattori; SAME,Ernst Holm,Hauptstraße 43,Dieksanderkoog,Schleswig Holstein,DE,25718,53.9726368,8.923847,04856 469,,ernst.holm@t-online.de,,Affiliated Dealer,PARTS; SERVICE; TRACTORS,C4641X,0020004074,lamborghini_api
Deutz-Fahr; Lamborghini Trattori; SAME; GreenPro,FALTNER GMBH,HAUPTSTR. 20-24,BUECHLBERG,,DE,94124,48.6675745,13.5164506,08505 48 0,,michael.eder@faltner.de,www.faltner.de,Dealer,PARTS; SERVICE; TRACTORS,C5231X,0010000495,lamborghini_api
Lamborghini Trattori; SAME; Huerlimann,FLTR Nutzfahrzeuge & Landtechnik GmbH & Co. KG,Im grünen Viertel 8,Delitzsch,Sachsen,DE,04509,50.8324,13.8063,034202-371-0,,r.berger@fltr.de,,Affiliated Dealer,PARTS; SERVICE; TRACTORS,C148C,0020028269,lamborghini_api
SAME,Franz Steber Landmaschinen,"Kappelstr. 20, Ried-Zillenberg 86510",Ried-Zillenberg,,DE,86510,48.293923,11.068269,08208 77 80 64 3,,,,,PARTS; SERVICE; TRACTORS,659,,same_nuxt_de-de
Deutz-Fahr; Lamborghini Trattori; SAME,Gerhard Raum Landmaschinen und Kraftfahrzeuge e.K. Inhaber Peter Stengel,BRANDSTRASSE 10,OFFENHAUSEN,Bayern,DE,91238,49.44727,11.41458,09158 216,,info@raum-offenhausen.de,www.raum-offenhausen.de,Affiliated Dealer,PARTS; SERVICE; TRACTORS,C5350X,0020012243,lamborghini_api
Deutz-Fahr; Lamborghini Trattori; SAME; GreenPro,HAEGELE TECHNIK GMBH,FABRIKSTRASSE 1,UHINGEN,,DE,73066,48.712533,9.567071,07161 65885 12,,verkauf@landtechnik-haegele.de,www.landtechnik-haegele.de,Dealer,PARTS; SERVICE; TRACTORS,C5486X,0010000724,lamborghini_api
Deutz-Fahr; Lamborghini Trattori; SAME,HEFELE LANDTECHNIK GMBH & CO. KG,Schwabaicher Straße 1 - Schwabmühlha,Langerringen,,DE,86853,48.1477,10.7563,08248 480,,info@hefele-landtechnik.de,www.landtechnik-hefele.de,Dealer,PARTS; SERVICE; TRACTORS,C5229X,0010000493,lamborghini_api
Deutz-Fahr; Lamborghini Trattori; SAME,HENKEL Land- und Gartentechnik,BIEBERGASSE 28,HUENFELD-MICHELSROMBACH,HE,DE,36088,50.6579948,9.66109279,06652 44 35,,a.henkel-landtechnik@t-online.de,,Affiliated Dealer,PARTS; SERVICE; TRACTORS,C1615X,0020014826,lamborghini_api
Lamborghini Trattori; SAME,HENNINGSEN LANDTECHNIK GMBH,HANS-CHRISTOPHERSEN ALLEE 1,BOEKLUND,,DE,24860,54.6004418,9.58697469,04623 1853 60,,email@dat-loept.de,www.dat-loep.de,Dealer,PARTS; SERVICE; TRACTORS,C5484X,0010000722,lamborghini_api
Deutz-Fahr; Lamborghini Trattori; SAME,HERRMANN LANDTECHNIK,NELKENSTRASSE 14,STEINFELD,,DE,97854,49.9545395,9.6724509,09359 909 593,,martin@herrmann-landtechnik.de,www.martin-herrmann-landtechnik.de,Dealer,PARTS; SERVICE; TRACTORS,C5481X,0010000719,lamborghini_api
SAME,HFT Hebe-und Fördertechnik GmbH Mühlhausen,"Am Görmarschen Kreuz 9, Mühlhausen 99974",Mühlhausen,,DE,99974,51.489500,9.327230,03601 75 16 31,,,,,PARTS; SERVICE; TRACTORS,2897,,same_nuxt_de-de
Deutz-Fahr; Lamborghini Trattori,HOFELICH-LANDTECHNIK GMBH,MAGIRUSSTRAßE 1,GERSTETTEN,,DE,89547,48.6385535,9.9681987,07323-5126,,gussenstadt@hofelichlandtechnik.de,www.hofelich-lt.de,Dealer,PARTS; SERVICE; TRACTORS,C5317X,0010000564,lamborghini_api
SAME,Harth GmbH,"HANFTALSTRASSE 2, Buchholz-Krautscheid 53567",Buchholz-Krautscheid,,DE,53567,50.697600,7.372170,02683 6044,,,www.fharth.de,,PARTS; SERVICE; TRACTORS,2618,,same_nuxt_de-de
Deutz-Fahr; Lamborghini Trattori; SAME,Heinrich Jasper,Otmerschstraße 6a,Hopsten,Nordrhein Westfalen,DE,48496,51.6432,6.95492,0171 306 34 44,,jasper.hd6@gmail.com,,Affiliated Workshop,,C368C,0020028491,lamborghini_api
Deutz-Fahr; Lamborghini Trattori; SAME,Heinrich Sous OHG - Aachen,Zehnthofweg 2,Aachen - Rothe Erde,,DE,52068,50.7794137144726,6.13497506861708,06553 920717,,Manuela-reusch@alff.de,www.heinrichsous.de,Dealer Branch,PARTS; SERVICE; TRACTORS,C823C,0020010500,lamborghini_api
SAME,Hemker Dieter Landmaschinen,"Loccumer Str. 4, Leese 31633",Leese,,DE,31633,52.493111,9.116030,05761 22 03,,,,,PARTS; SERVICE; TRACTORS,711,,same_nuxt_de-de
Deutz-Fahr; Lamborghini Trattori; SAME,Hesseland Land- und Kommunaltechnik,Im Gewerbegebiet,Bad Bibra,Sachsen-Anhalt,DE,06647,51.2124476,11.5871701,034465 20368,,info@hesseland.de,www.hesseland.de,Affiliated Dealer,PARTS; SERVICE; TRACTORS,C972X,0020020048,lamborghini_api
Lamborghini Trattori; SAME,Hiller Landtechnik GmbH,Volkeningstraße 66,Hille,DE,DE,32479,52.3576316,8.7428407,05703/515620,,k.meier-bunge@hillerlandtechnik.de,www.hillerlandtechnik.de,Dealer,PARTS; SERVICE; TRACTORS,C2088X,0010001945,lamborghini_api
Lamborghini Trattori; SAME,IMKEN LANDMASCHINEN GMBH & CO. KG,BUNDESSTRASSE 55,JADE-SCHWEIBURG,,DE,26349,53.338,8.1901,04455 9118 00,,verkauf@imken-landmaschinen.de,www.imken-landmaschinen.de,Dealer,PARTS; SERVICE; TRACTORS,C5436X,0010000676,lamborghini_api
Lamborghini Trattori; SAME,JAEGER,AUERBERGSTRASSE 33,BERNBEUREN,,DE,86975,47.737,10.7728,08860 387,,jaeger.auerberg@t-online.de,www.jaeger-auerberg.de,Dealer,PARTS; SERVICE; TRACTORS,C5491X,0010000729,lamborghini_api
Deutz-Fahr; Lamborghini Trattori; SAME; Huerlimann,JENNE LANDMASCHINEN GMBH,ENDINGER STRASSE 65,ENDINGEN,Baden-Württemberg,DE,79346,48.1371332,7.660073,07642 1085,,info@jenne-landmaschinen.de,www.jenne-landmaschinen.de,Dealer,PARTS; SERVICE; TRACTORS,C5468X,0010000708,lamborghini_api
SAME,Jenuwein Karl Landtechnik,"Birkenallee 5, Fischbach/Aretsried 86850",Fischbach/Aretsried,,DE,86850,48.306901,10.649196,08236 15 31,,,,,PARTS; SERVICE; TRACTORS,658,,same_nuxt_de-de
Lamborghini Trattori; SAME,Johann Fehlberger GmbH,Penzing 3,Lengdorf,Bayern,DE,84435,48.2371,12.0391,08083/53060,,landtechnik.heller@fehlberberger.de,,Affiliated Dealer,PARTS,C2091X,0020004677,lamborghini_api
Lamborghini Trattori; SAME,Juffinger Land- u. Forsttechnik,NIKLASREUTH 3,IRSCHENBERG,,DE,83737,47.7836291,11.9185204,08025 1005,,juffinger@gmx.de,,Dealer,PARTS; SERVICE; TRACTORS,C5464X,0010000704,lamborghini_api
Deutz-Fahr; Lamborghini Trattori; SAME,Junge Landtechnik  GmbH & Co. KG,LINDENALLEE 5,GEESTLAND,,DE,27624,53.6263529,8.8977468,+49 (0) 4745 93151-1,,info@junge-landtechnik.de,www.junge-landtechnik.de,Dealer,PARTS; SERVICE; TRACTORS,C5438X,0010002839,lamborghini_api
Deutz-Fahr; Lamborghini Trattori; SAME; GreenPro,KAMHUBER LANDMASCHINEN,ERLACH 2,UNTERNEUKIRCHEN,,DE,84579,48.1564215,12.6051054,08634 627450,,info@kamhuber.eu,www.kamhuber.eu,Dealer,PARTS; SERVICE; TRACTORS,C5475X,0010003664,lamborghini_api
Deutz-Fahr; Lamborghini Trattori; SAME,KAPPES GMBH,AUSTRASSE 4,NIEDERSTETTEN,Baden-Württemberg,DE,97996,49.4049935,9.9167402,07932 6056 0,,kappes-niederstetten@t-online.de,http://www.kappes-landtechnik.de/,Affiliated Dealer,PARTS; SERVICE; TRACTORS,C335C,0020005116,lamborghini_api
Deutz-Fahr; Lamborghini Trattori; SAME,KLINGER JOSEF LANDTECHNIK,LINDEN 1,TEISENDORF,,DE,83317,47.8464134,12.8464156,08666 9815 90,,info@landtechnik-klinger.de,www.landtechnik-klinger.de,Dealer,PARTS; SERVICE; TRACTORS,C5472X,0010000712,lamborghini_api
Lamborghini Trattori; SAME,KOERNER HORST GMBH & CO. KG,HOMBURGER STRASSE 19,KIRKEL-ALTSTADT,,DE,66459,49.3179155,7.28697949,06841 8251,,landmaschinen-koerner@t-online.de,,Dealer,PARTS; SERVICE; TRACTORS,C5442X,0010000682,lamborghini_api
Lamborghini Trattori; SAME,KOLLERT LEONHARD,Langgasse 9,Martinsheim,Bayern,DE,97340,49.6242649,10.1494127,09332 9161,,kollert@gmx.net,,Affiliated Dealer,PARTS; SERVICE; TRACTORS,C336C,0020028464,lamborghini_api
Deutz-Fahr; Lamborghini Trattori; SAME,KRAUS STEFAN LANDMASCHINEN,Gewerbestraße Linden 5,Geiersthal,,DE,94244,49.0139,12.5815,09923 1418,,info@landtechnik-kraus.de,www.landtechnik-kraus.de,Authorized Workshop,PARTS; SERVICE,C5446X,0010000686,lamborghini_api
Deutz-Fahr; Lamborghini Trattori; SAME; Huerlimann,KREMLER LANDTECHNIK GMBH & CO. KG,Unterreitnau 9e,LINDAU,,DE,88131,47.5915299,9.6593073,08382 27582 0,,landtechnik@kremler.de,www.kremler.de,Dealer,PARTS; SERVICE; TRACTORS,C5263X,0010000520,lamborghini_api
Lamborghini Trattori; SAME,KULZER ALOIS GMBH,EITENZELL 23,RETTENBACH,,DE,93191,49.0518709,12.462886,09462 679,,info@kulzer-landtechnik.de,www.kulzer-landtechnik.de,Dealer,PARTS; SERVICE; TRACTORS,C5447X,0010000687,lamborghini_api
Deutz-Fahr; Lamborghini Trattori; SAME,Karin Böckl Landtechnik,Bahnhofstr. 3,Höchstadt,Bayern,DE,91315,49.6986922,10.8032028,09193 8242,,karibo75@gmx.de,,Affiliated Dealer,PARTS; SERVICE,C2501X,0020007151,lamborghini_api
Lamborghini Trattori; SAME,Keller Michael,ZEUGHAUSSTRASSE 5,BAD KOENIGSHOFEN,,DE,97631,50.2981,10.4691,09761 6353,,landmaschinen.keller@t-online.de,www.landmaschinen-keller.de,Independent workshop,PARTS; SERVICE; TRACTORS,C428C,0020005402,lamborghini_api
Deutz-Fahr; Lamborghini Trattori; SAME,Ketterer Konrad Landmaschinen- und KFZ-Reparaturwerkstatt,Untere Dorfstraße 49,Nürnberg-Neunhof,Bayern,DE,90427,49.5223082,11.0459179,0911 305 576,,ketterer-landtechnik@gmx.net,www.ketterer-fahrzeugtechnik.de,Affiliated Dealer,PARTS; SERVICE; TRACTORS,C933X,0020009745,lamborghini_api
Lamborghini Trattori; SAME,LKH Hormersdorf  Land- und Kommunaltechnik,SCHULSTR. 10,ZWOENITZ OT HORMERSDORF,,DE,08297,50.6711719,12.8800955,03721 3984 0,,lkhhmd@landtechnik-hormersdorf.de,www.landtechnik-hormersdorf.de,Dealer,PARTS; SERVICE; TRACTORS,C5452X,0010000692,lamborghini_api
Lamborghini Trattori; SAME,LORCH GEBR. GMBH & CO.,REUTLINGER STRASSE 6,TROCHTELFINGEN,,DE,72818,48.28882,9.2251972,07124 310,,info@landtechnik-lorch.de,www.landtechnik-lorch.de,Dealer,PARTS; SERVICE; TRACTORS,C5409X,0010000651,lamborghini_api
Deutz-Fahr; Lamborghini Trattori; SAME,LVS Lankhorst GmbH & Co KG SÜDLOHN,Robert-Bosch-Straße 101,Südlohn,Nordrhein-Westfalen,DE,46354,51.9354531,6.8612056,02862 8044,,-,www.lankhorst.de,Affiliated Dealer,PARTS; SERVICE; TRACTORS,C914X,0020012668,lamborghini_api
Deutz-Fahr; Lamborghini Trattori; SAME,Landtechnik Grüner,HAUPTSTR. 9 + 11,HILTPOLTSTEIN,Bayern,DE,91355,49.6600401,11.3177701,09192 221,,gruener.ernst@t-online.de,,Affiliated Dealer,PARTS; SERVICE; TRACTORS,C3466X,0020012401,lamborghini_api
Deutz-Fahr; Lamborghini Trattori; SAME,Landtechnik Mahnkopf,Werner-Seelenbinder-Straße 19,Rhinow,Brandenburg,DE,14728,52.7424,12.3275,03387 5 35 50,,Landtechnikmahnkopf@gmail.de,,Affiliated Workshop,PARTS; SERVICE; TRACTORS,C4048X,0020027198,lamborghini_api
Deutz-Fahr; Lamborghini Trattori; SAME; GreenPro,Laube Chris,"Nichelsdorf, 9",Crossen/Elster,Thüringen,DE,07613,50.9779,12.0054,036693 21217,,landtechnik-chrislaube@t-online.de,,Affiliated Dealer,PARTS; SERVICE; TRACTORS,C1624X,0020020050,lamborghini_api
Deutz-Fahr; Lamborghini Trattori; SAME,Leo Maschinencenter,Alt-Saale 28,Uhlstädt-Kirchhasel,Thüringen,DE,07407,50.7265205,11.3890237,03672 4372 0,,leo-maschinen-kirchhasel@t-online.de,,Affiliated Dealer,PARTS; SERVICE; TRACTORS,C971X,0020005273,lamborghini_api
Deutz-Fahr; Lamborghini Trattori; SAME,Lorenz Peter,"Gimmler Weg, 5",Altkirchen,Thüringen,DE,04626,50.9075,12.3768,034491 23272,,dispo@kran-lorenz.de,www.kran-lorenz.de,Affiliated Dealer,PARTS; SERVICE; TRACTORS,C1627X,0020020187,lamborghini_api
Deutz-Fahr; Lamborghini Trattori; SAME,MILDE GmbH - Creußen,Am Steinkreuz 3,Creußen,Bayern,DE,95473,49.847413,11.6098935,09205 217,,thomas.milde@milde-gmbh.de,www.milde-gmbh.de,Dealer Branch,PARTS; SERVICE; TRACTORS,C767X,0010001689,lamborghini_api
Deutz-Fahr; Lamborghini Trattori; SAME; GreenPro,MILDE GmbH - Gebenbach,AM WEINGARTEN 5,GEBENBACH,,DE,92274,49.5385138,11.8779741,09622 7006 21,,thomas.milde@milde-gmbh.de,www.milde-gmbh.de,Dealer,PARTS; SERVICE; TRACTORS,C768X,0010001689,lamborghini_api
Deutz-Fahr; Lamborghini Trattori; SAME,MK Maschinentechnik,Ottenhofen 41a,Marktbergel,Bayer,DE,91613,49.452213,10.362078,0160 95525343,,info@mk-maschinentechnik.de,https://mk-maschinentechnik-frankenhohe.deutz-fahr-dealer.com,Affiliated Dealer,PARTS; SERVICE; TRACTORS,C851C,0020028894,lamborghini_api
Deutz-Fahr; Lamborghini Trattori; SAME,MTO GmbH,Regenbogenallee 1,Bad Freienwalde OT Altranft,,DE,16259,52.7603,14.0214,03344/1500400,,mto-gmbh@t-online.de,,Dealer,PARTS; SERVICE; TRACTORS,C4255X,0010003434,lamborghini_api
Lamborghini Trattori; SAME,MUELLER LUCAS,RAVENSBURGER STR. 18,WILHELMSDORF,,DE,88271,47.8489288,9.4357945,07503 816,,landtechnik-mueller@t-online.de,,Dealer,PARTS; SERVICE; TRACTORS,C5454X,0010000694,lamborghini_api
Deutz-Fahr; Lamborghini Trattori; SAME,Maschinenservice Bergwinkl,Vogelsang 5,Mengkofen,Bayern,DE,84152,48.69808,12.37285,-,,martin.bergwinkl@web.de,,Affiliated Dealer,PARTS; SERVICE; TRACTORS,C145C,0020028268,lamborghini_api
Deutz-Fahr; Lamborghini Trattori; SAME,Matthias Frey Landtechnik,Beutelhausen 5,Adlkofen,Bayern,DE,84166,48.5649836718444,12.2947096243249,08707 9392979,,servus@landtechnik-frey.com,,Independent workshop,PARTS; SERVICE,C855C,0020028937,lamborghini_api
Deutz-Fahr; Lamborghini Trattori; SAME,Maus Landtechnik,Kehlhofweg 3a,Tengen-Uttenhofen,Baden-Württemberg,DE,78250,48.0421,9.31889,0152 57 07 08 06,,info@landtechnik-maus.de,,Affiliated Workshop,PARTS; SERVICE,C597C,0020028500,lamborghini_api
Deutz-Fahr; Lamborghini Trattori; SAME,Mayr Gerätetechnik,Ramsacher Str. 12,Oberbergen,Bayern,DE,86929,48.0914013,10.9368544,08191 970 75 75,,kontakt@mayr-geraetetechnik.de,,Affiliated Dealer,PARTS; SERVICE; TRACTORS,C4297X,0020026463,lamborghini_api
Deutz-Fahr; Lamborghini Trattori; SAME,Mergner Landtechnik,Oberkotzauer Straße 11,Hof,Bayern,DE,95032,50.292493,11.9327748,09281 595 95 50,,s.mergner@mergner-landtechnik.de,https://mergner-landtechnik.deutz-fahr-dealer.com,Affiliated Dealer,PARTS; SERVICE; TRACTORS,C5C,0020028114,lamborghini_api
SAME,Meßmer Landmaschinen,"Gruenlandstrasse 9, Freiburg 79108",Freiburg,,DE,79108,47.999000,7.842100,07665 93 99 6 75,,,,,TRACTORS,574,,same_nuxt_de-de
Deutz-Fahr; Lamborghini Trattori; SAME,Milde GmbH - Bornitz,Zeitzer Straße 1,Elsteraue - Bornitz,Sachsen-Anhalt,DE,06729,51.0849,12.1643,034424 401 0,,thomas.milde@milde-gmbh.de,www.milde-gmbh.de,Dealer Branch,PARTS; SERVICE; TRACTORS,C766X,0010001689,lamborghini_api
Deutz-Fahr; Lamborghini Trattori; SAME,MÜLLER LANDTECHNIK GMBH & CO. KG,IN DER GOMBACH 22,LAUBACH,,DE,35321,50.5440093,8.9984606,06405 88 0,,s.mueller@muellerlandtechnik.de,http://www.deutz-fahr-haendler.de/site/startseite.,Dealer,PARTS; SERVICE; TRACTORS,C5264X,0010000521,lamborghini_api
Lamborghini Trattori; SAME,NIRSCHL LANDMASCHINEN OHG,POECKINGER STR. 36,STARNBERG-PERCHTING,,DE,82319,47.996387,11.2784911,08151 29364,,nirschl-landmaschinen@t-online.de,,Dealer,PARTS; SERVICE; TRACTORS,C5462X,0010000702,lamborghini_api
Deutz-Fahr; Lamborghini Trattori; SAME,OPPENBERG LANDTECHNIK INH. B. LANGEN e.K.,ALTE STRASSE 28,MECHERNICH-BLEIBUIR,,DE,53894,50.5907,6.65143,02443 2556,,info@oppenberg-landtechnik.de,www.oppenberg-landtechnik.de,Dealer,PARTS; SERVICE; TRACTORS,C5238X,0010000499,lamborghini_api
Deutz-Fahr; Lamborghini Trattori; SAME,Opgenhoff Landtechnik,Haagscher Weg 14,Kevelaer,,DE,47623,51.5666082862769,6.26192056311028,02832 2783,,cruehl@opgenhoff.de,,Dealer,PARTS; SERVICE; TRACTORS,C839C,10004051,lamborghini_api
Deutz-Fahr; Lamborghini Trattori; SAME; GreenPro; ViTiBOT,PETRI & SOEHNE GMBH,RIEDSTRASSE 7,DANNSTADT-SCHAUERNHEIM,,DE,67125,49.4325,8.31852,06231 9393 17,,info@petri-landmaschinen.de,www.petri-landmaschinen.de,Dealer,PARTS; SERVICE; TRACTORS,C5288X,0010001926,lamborghini_api
Lamborghini Trattori; SAME,Perret GmbH,RAUWOEHRSTRASSE 40,NEUBEUERN,Bayern,DE,83115,47.78631,12.14308,08035 9844 0,,info@perret-gmbh.de,www.perret-gmbh.de,Dealer,PARTS; SERVICE; TRACTORS,C3052X,0010002564,lamborghini_api
SAME,Piesporter Landmaschinen GmbH,"Am Wenigerflur 12, PIESPORT 54498",PIESPORT,,DE,54498,49.873816,6.917823,06507 9920 96,,,www.piesporter-landmaschinen.de,,PARTS; SERVICE; TRACTORS,2940,,same_nuxt_de-de
Deutz-Fahr; Lamborghini Trattori; SAME,QUAST LANDMASCHINEN,SCHWARZER WEG 1,ROCHAU,,DE,39579,52.7079536,11.7498445,039328 246,,quast-landtechnik@t-online.de,www.quast-landtechnik.de,Dealer,PARTS; SERVICE; TRACTORS,C5384X,0010002002,lamborghini_api
Deutz-Fahr; Lamborghini Trattori; SAME,RAIFFEISEN-WARENGENOSSENSCHAFT,OCHHOLTER STRASSE 1,BERNE-NEUENKOOP,NI,DE,27804,53.1453,8.45932,-,,info@rwg-hunte-weser.de,,Dealer Branch,PARTS; SERVICE; TRACTORS,C4116X,0020012662,lamborghini_api
Deutz-Fahr; Lamborghini Trattori; SAME,RAU LANDTECHNIK GMBH,HERRENSTRASSE 2,BRIGACHTAL,,DE,78086,48.0084983,8.46798289,07721 214 25,,rau.landtechnik@t-online.de,www.rau-landtechnik.de,Authorized Workshop,PARTS; SERVICE,C5321X,0010000568,lamborghini_api
Deutz-Fahr; Lamborghini Trattori; SAME,RIESER AGRARTECHNIK GMBH,BACHAECKER 3-4,NOERDLINGEN-BALDINGEN,,DE,86720,48.8593148,10.4690413,09081 805068 0,,info@rieser-agrartechnik.de,www.rieser-agrartechnik.de,Dealer,PARTS; SERVICE; TRACTORS; AGRICENTER,C5369X,0010000611,lamborghini_api
Deutz-Fahr; Lamborghini Trattori; SAME,ROTH WILLI GmbH,"BUEHLSTRASSE, 6",MARKTREDWITZ,0,DE,95615,49.9979,12.0899,09231 288 7,,roth.gartentechnik@t-online.de,,Affiliated Workshop,PARTS; SERVICE; TRACTORS,C1621X,0020010950,lamborghini_api
Lamborghini Trattori; SAME,SABEL GMBH,TALHOF,DORNBURG 5,,DE,65599,50.4914,8.01541,06436 1333,,info@sabel-landtechnik.de,www.sabel-landtechnik.de,Affiliated Dealer,PARTS; SERVICE; TRACTORS,C5458X,0020028132,lamborghini_api
Lamborghini Trattori; SAME,SCHMID-LANDTECHNIK GMBH,HAUPTSTR. 11,RECHTMEHRING,,DE,83562,48.12201,12.15891,08076 9188 0,,technik@schmid-landtechnik.de,,Dealer,PARTS; SERVICE; TRACTORS,C5461X,0010000701,lamborghini_api
Lamborghini Trattori; SAME,SCHMIDT & SOHN RUDOLF,SCHULSTR. 8,WICKENROTH,,DE,55758,49.8125797,7.35682329,06785 264,,rudolf.schmidt.landmachinen@t-online.de,,Dealer,PARTS; SERVICE; TRACTORS,C5457X,0010000697,lamborghini_api
Lamborghini Trattori; SAME; Huerlimann,SCHMIEDER SIEGFRIED,UNTERTAL 1,ELZACH YACH,,DE,79215,48.1627,8.08307,07682 425,,schmieder-maschinen@t-online.de,www.landtechnik-schmieder.de,Authorized Workshop,PARTS; SERVICE,C5463X,0010000703,lamborghini_api
Lamborghini Trattori; SAME,SCHNEIDER LANDMASCHINENZENTRUM,SCHAFGASSE 20,HERRENBERG-GUELTSTEIN,,DE,71083,48.5732092,8.88031949,07032 95780,,info@schneider-lmz.de,www.schneider-lmz.de,Dealer,PARTS; SERVICE; TRACTORS,C5410X,0010000652,lamborghini_api
Deutz-Fahr; Lamborghini Trattori; SAME,SCHREINER MASCH.VERTR./ALLENDORF,NEUE-STR. 43,ALLENDORF-HAINE,Hessen,DE,35108,51.0357417,8.7238281,06451 39 81,,info@schreiner-maschinen.de,,Dealer Branch,PARTS; SERVICE; TRACTORS,C4142X,0010000602,lamborghini_api
Deutz-Fahr; Lamborghini Trattori; SAME; GreenPro,SCHREINER MASCHINENVERTRIEBS-GMBH,SCHELDE-LAHN-STRASSE 20,STEFFENBERG,,DE,35239,50.8397327,8.46940869,06464 921 0,,info@schreiner-maschinen.de,www.schreiner-maschinen.de,Dealer,PARTS; SERVICE; TRACTORS,C5357X,0010000602,lamborghini_api
Lamborghini Trattori; SAME,SCHÜTTLER ALBERT GMBH,LANDSKRONER STRASSE 118,GRAFSCHAFT-LEIMERSDORF,Rheinland-Pfalz,DE,53501,50.5857696,7.1313172,02641 24477,,schuettler-gmbh@t-online.de,www.schuettler-landmaschinen.de,Affiliated Dealer,PARTS; SERVICE; TRACTORS,C5465X,0020003851,lamborghini_api
Deutz-Fahr; Lamborghini Trattori; SAME,SDF Zentrum Schwarzwald-Baar-Hegau GmbH,Kleine Breite 2,Geisingen,,DE,78187,47.9242086,8.6416339,0770492850,,info@sdf-sbh.de,www.sdf-sbh.de,Dealer,PARTS; SERVICE; TRACTORS,C2749X,0010002170,lamborghini_api
Lamborghini Trattori; SAME,SEBALD SPIEGL,RAMPERTSHOFEN 3,DIETRAMSZELL,,DE,83623,47.8500634,11.5303485,08027 367,,sebald.spiegl@gmx.de,,Dealer,PARTS; SERVICE; TRACTORS,C5482X,0010000720,lamborghini_api
SAME,SPATZ WILHELM,"TALSTR. 54, REICHELSHEIM 64385",REICHELSHEIM,,DE,64385,49.724060,8.900467,06164/628,,,,,PARTS; SERVICE; TRACTORS,5509,,same_nuxt_de-de
Deutz-Fahr; Lamborghini Trattori; SAME,Scherzinger Landtechnik GmbH,Kreisstrasse 11,Braeunlingen-Waldhausen,Baden-Württemberg,DE,78199,47.9280245,8.3954877,0771-61381,,buchhaltung@scherziger-landtechnik.de,,Affiliated Workshop,TRACTORS,C1560X,0020002281,lamborghini_api
Deutz-Fahr; Lamborghini Trattori; SAME,Schlepper Schmiede Seifert,Lindenstraße 4,Brachttal,Hessen,DE,63636,50.3235831498207,9.2572793258241,0160 91 10 68 48,,schlepper-schmiede-seifert@gmx.de,,Affiliated Workshop,PARTS,C319C,0020028423,lamborghini_api
Lamborghini Trattori; SAME,Schmidt KG,Gaildorferstraße 10,Gschwend,Baden-Württemberg,DE,74417,48.9352,9.74322,07972 222,,verkauf@schmidt-technik.eu,www.schmidt-gartentechnik.de,Authorized Workshop,PARTS; SERVICE; TRACTORS,C1016X,0010001969,lamborghini_api
Deutz-Fahr; Lamborghini Trattori; SAME; GreenPro,Schreiner Maschinenvertriebs GmbH,In der Aue 18,Schwalmstadt-Treysa,Hessen,DE,34613,50.9128,9.18606,06691 9628 16,,w.keller@schreiner-maschinen.de,www.schreiner-maschinen.de,Dealer Branch,PARTS; SERVICE; TRACTORS,C5356X,0010000602,lamborghini_api
SAME,Schunck Landtechnik,"Im Brühl 5, Ilbesheim 76831",Ilbesheim,,DE,76831,49.181040,8.058040,06341 342 79,,,,,TRACTORS,1502,,same_nuxt_de-de
Lamborghini Trattori; SAME; GreenPro,Sievershofer Traktoren,Dorfstrasse 56,Grischow,Mecklenburg-Vorpommern,DE,17089,53.6990062,13.3394861,03969-556941,,info@sievershofer-traktoren.de,www.sievershofer-traktoren.de,Authorized Workshop,PARTS; SERVICE,C1426X,0010001871,lamborghini_api
Deutz-Fahr; Lamborghini Trattori; SAME,THOMAS RIED,Prälat-Walter-Straße 4,EHINGEN / KIRCHBIERLINGEN,Baden-Württemberg,DE,89584,48.235493,9.73868989,07391 52052,,info@hausderlandtechnik.de,www.hausderlandtechnik.de,Dealer,PARTS; SERVICE; TRACTORS,C5485X,0010000723,lamborghini_api
Deutz-Fahr; Lamborghini Trattori; SAME,TOMFOHRDE LANDTECHNIK,WOHLERST 43,WOHLERST,,DE,21698,53.4508,9.38155,04166 560,,info@tomfohrde.de,www.tomfohrde.de,Dealer,PARTS; SERVICE; TRACTORS,C5386X,0010000627,lamborghini_api
Deutz-Fahr; Lamborghini Trattori; SAME,Technikhof Markendorf GmbH,Fröhdener Siedlung 31,Jüterbog OT Fröhden,Brandenburg,DE,14913,51.9756447,13.1735981,03372 40 45 44,,info@technikhof.de,www.technikhof.de,Dealer,PARTS; SERVICE; TRACTORS; AGRICENTER,C5884X,0010003614,lamborghini_api
Deutz-Fahr; Lamborghini Trattori; SAME,UHR LANDTECHNIK GMBH,AM KIRSCHBAEUMCHEN 10,FEHL-RITZHAUSEN,,DE,56472,50.6464011,8.000483,02661 910 50,,lutz.uhr@uhr-landtechnik.de,www.uhr-landtechnik.de,Dealer,PARTS; SERVICE; TRACTORS,C5322X,0010000569,lamborghini_api
Deutz-Fahr; Lamborghini Trattori; SAME,Ulf Sommerburg Kfz-Meisterwerkstatt,Fastenberg 3,Bergen,,DE,29303,52.7724854871614,9.97717468221591,05051 701662,,Sommerburg-kfz-meisterwerkstatt@gmx.de,,Independent workshop,PARTS; SERVICE,C858C,0020028939,lamborghini_api
Deutz-Fahr; Lamborghini Trattori; SAME,WAGNER GARTEN-U.LANDTECHNIK GMBH,GRUENER WEG 2A,FRIEDBERG / HESSEN,,DE,61169,50.324413,8.7477618,06031 9450,,Vertrieb@Wagner-Landtechnik.de,www.wagner-landtechnik.de/,Dealer,PARTS; SERVICE; TRACTORS,C5427X,0010000669,lamborghini_api
Deutz-Fahr; Lamborghini Trattori; SAME,WUESTENBERG KG Husum,AM SCHULWALD 3-5,HUSUM,SH,DE,25813,54.4916853,9.0624358,04841 967 80,,husum@wuestenberg-gruppe.de,,Dealer Branch,PARTS; SERVICE; TRACTORS,C4140X,0010000591,lamborghini_api
Deutz-Fahr; Lamborghini Trattori; SAME,Wagner Landtechnik,Grillenburger Str. 50,Bobritzsch,Sachsen,DE,09627,50.9386,13.427,-,,wagner-dorfhain@web.de,https://landmaschinen-wagner.deutz-fahr-dealer.com/,Affiliated Dealer,PARTS; SERVICE; TRACTORS,C3491X,0020020540,lamborghini_api
Deutz-Fahr; Lamborghini Trattori; SAME,Brdr. Toft Maskinforretning A/S.,Norgesvej 7,Hammel,Denmark,DK,8450,56.2493981,9.8564245,-,,-,,Affiliated Dealer,PARTS; SERVICE; TRACTORS,C1827X,0020027578,lamborghini_api
Deutz-Fahr; Lamborghini Trattori; SAME,SARL AGRO INDUSTRIE TRAC,Z.I. DESSERTE NR03 CHETOUANE,TLEMCEN - ALGERIE,DZ,DZ,13000,34.9029564,-1.299824,00213 43 276050,,ctabet@kherbouche.com,https://agro-industrie-trac.sdfdealer.com,Importer,PARTS; SERVICE; TRACTORS,C5141X,0010000400,lamborghini_api
SAME,FARMER'S CHOICE AGRI MACHINERY,"117 Mindanao Avenue, Quezon City 1116",Quezon City,,EA,1116,14.682437,121.031719,+63 2 8290 3365,,,https://agri-machinery-corporation.sdfdealer.com,,PARTS; TRACTORS,3150,,same_nuxt_en-ea
SAME,"GOOD ORIENT INDUSTRY CO.,LTD.","NO.49 SAN LUNG ROAD, SAN-LUNG VILLA, TA-LIAO, KAOHSIUNG -",KAOHSIUNG -,,EA,,23.010900,120.666000,00 88 6 928358032,,,www.goi.com.tw,,PARTS; SERVICE; TRACTORS,2057,,same_nuxt_en-ea
SAME,"RED SPARROW AGRI TECHNOLOGY CO., LTD.","SANGKAT CHAM CHAU, KHAN POR SENCHEY 120909",KHAN POR SENCHEY 120909,,EA,,11.526141,104.917967,855 92 453 380,,,,,PARTS; SERVICE; TRACTORS,5490,,same_nuxt_en-ea
Deutz-Fahr; Lamborghini Trattori; Huerlimann,AGRICOLA CORBACHO - AGRIMOTOR MIAJADAS,"POL. IND. 1º DE MAYO, PARC. 7",MIAJADAS,ESPAÑA,ES,10100,39.1367,-5.92312,927161324,,agrimotormiajadas@gmail.com,,Affiliated Workshop,PARTS; SERVICE,C4223X,0020016042,lamborghini_api
Deutz-Fahr; Lamborghini Trattori,AGRICOLA CORBACHO - AGROREPUESTOS FRANCISCO LÓPEZ,"Calle Hernán Cortes, 8",Valdivia,Extremadura,ES,06720,39.0323,-5.70937,693261020,,agroreparacionesfranciscolopez@gmail.com,,Independent workshop,PARTS; SERVICE,C296C,0020028388,lamborghini_api
Deutz-Fahr; Lamborghini Trattori; SAME,AGRICOLA CORBACHO - ANTONIO JIMÉNEZ PONCE,"C/ CAROLINA CORONADO, 4",ALDEA DEL FRESNO,EXTREMADURA,ES,06225,38.5545,-6.23883,615 367 696,,reparaciones 1972@hotmail.com,,Independent workshop,PARTS,C80C,0020027869,lamborghini_api
Deutz-Fahr; Lamborghini Trattori; SAME,AGRICOLA CORBACHO - NUEVO TALLER DE AZUAGA S.L.,Polígono Industrial Mina La Oscuridad Parcela 14,Azuaga,EXTREMADURA,ES,06920,38.2615,-5.69373,630582840,,nuevotaller@hotmail.com,,Affiliated Workshop,,C6085X,0020028051,lamborghini_api
Deutz-Fahr; Lamborghini Trattori; SAME; Huerlimann,AGRICOLA CORBACHO - TALL. FERNANDO GUZMÁN VILLARES,"C/ HERRERO, S/N",MONTIJO,ESPAÑA,ES,06480,38.9133,-6.60407,924452561,,t.f.guzman.villares@hotmasil.com,,Independent workshop,PARTS; SERVICE,C4226X,0020016046,lamborghini_api
Deutz-Fahr; Lamborghini Trattori; SAME; Huerlimann,AGRICOLA CORBACHO - TALLERES JUDERIA,"Ronda de la Hispanidad, s/n",VILLANUEVA DE LA SERENA,ESPAÑA,ES,06700,38.9829,-5.79847,924 84 39 61,,tallerjuderiavillanueva@gmail.com,,Affiliated Workshop,PARTS; SERVICE,C4225X,0020016044,lamborghini_api
Deutz-Fahr; Lamborghini Trattori; Huerlimann,AGRICOLA CORBACHO S.L.,CTRA DE DON BENITO 16,GUARENA,ESPANA,ES,06470,38.8614579,-6.0940252,924 35 06 86,,info@agricolacorbacho.es,https://agricolacorbacho.deutz-fahr-dealer.com,Dealer,PARTS; SERVICE; TRACTORS,C167X,0010001102,lamborghini_api
Deutz-Fahr; Lamborghini Trattori; SAME; Huerlimann,AGRICOLA NEVADA S.L. - Mollina,A-92 GRANADA-SEVILLA (POLÍGONO LAS VIÑAS),MOLLINA,España,ES,29532,37.0948154,-4.628488,618332841,,ventas@agrolabornevada.es,www.agrolabornevada.es/,Dealer Branch,PARTS; SERVICE; TRACTORS; AGRICENTER,C3310X,0010001954,lamborghini_api
Deutz-Fahr; Lamborghini Trattori,AGRIMONTUIRI S.L.,CTRA PALMA A ARTA KM 28,"MONTUIRI, PALMA DE MALLORCA",ESPANA,ES,07230,39.5696,2.98113,971 16 15 23,,info@agrimontuiri.es,http://www.agrimontuiri.es,Authorized Workshop,PARTS; SERVICE,C148X,0010001083,lamborghini_api
Deutz-Fahr; Lamborghini Trattori; SAME; Huerlimann,AGROLABOR ALTIPLANO S.L.,"Ctra. Benamaurel, km. 2.5",BAZA,ESPANA,ES,18800,37.493,-2.77041,958 703 238,,joseazor@agrolaboraltiplano.es,www.agrolaboraltiplano.es,Dealer,PARTS; SERVICE; TRACTORS,C110X,0010001953,lamborghini_api
Deutz-Fahr; Lamborghini Trattori; SAME; Huerlimann,AGROLABOR ALTIPLANO S.L. - Guadix,"CTRA. GRANADA, S/N. (frente a hospital)",GUADIX,ESPAÑA,ES,18500,37.309428,-3.1472772,958703238,,guadix@agrolaboraltiplano.es,www.agrolaboraltiplano.es,Dealer Branch,PARTS; SERVICE; TRACTORS,C2701X,0010001953,lamborghini_api
Deutz-Fahr; Lamborghini Trattori; SAME; Huerlimann,AGROLABOR NEVADA S.L.,"Ctra. Málaga, s/n",SANTA FE,ESPANA,ES,18320,37.189678,-3.734991,958 51 30 36,,ventas@agrolabornevada.es,,Dealer,PARTS; SERVICE; TRACTORS,C109X,0010001954,lamborghini_api
Deutz-Fahr; Lamborghini Trattori; SAME,AGROMECANICA CANO - AGROHUETE,"Ctra. Carrascosa, 1",HUETE,CASTILLA - LA MANCHA,ES,16500,40.1513,-2.68691,-,,rubenagrohuete@gmail.com,,Affiliated Workshop,,C4508X,0020027607,lamborghini_api
Deutz-Fahr; Lamborghini Trattori; SAME,AGROMECANICA CANO - TALLERES SAN ISIDRO,"C/Don Pedro, 24",Mejorada,CASTILLA - LA MANCHA,ES,45622,40.0598,-4.88077,-,,antomejo@gmail.com,,Affiliated Workshop,,C4632X,0020027560,lamborghini_api
Deutz-Fahr; Lamborghini Trattori; SAME; Huerlimann,"AGROMECANICA CANO, S.L.",PASEO DE CARLOS MAHOU,VALDILECHA,ESPAÑA,ES,28511,40.2918031,-3.2996759,918738008,,cesar.cano@agromecanicacano.com,www.agromecanicacano.com,Dealer,PARTS; SERVICE; TRACTORS,C4080X,0010003405,lamborghini_api
Deutz-Fahr; Lamborghini Trattori; SAME; Huerlimann,"AGROMECANICA CANO, S.L. - Villaseca de la Sagra","Av. de la Industria, 14",VILLASECA DE LA SAGRA,ESPAÑA,ES,45260,39.9510574,-3.8533043,925275388,,eladio.cano@agromecanicacano.com,www.agromecanicacano.com,Dealer Branch,PARTS; SERVICE; TRACTORS,C4104X,0010003405,lamborghini_api
Deutz-Fahr; Lamborghini Trattori; SAME,AGROMECÁNICA CANO - DOMARCO,C/ DE NITRA 1 P.I. EL HENARES,GUADALAJARA,ESPAÑA,ES,19004,40.6298,-3.16415,949 24 78 78,,almacen@domarco.com,https://www.agromecanicacano.com/,Affiliated Workshop,SERVICE,C129X,0020027422,lamborghini_api
Deutz-Fahr; Lamborghini Trattori; SAME,AGROMECÁNICA CANO - TALLERES SANZ AGUILAR,TALLERES SANZ AGUILAR S.L.,MOLINA DE ARAGÓN,,ES,19300,40.9024,-1.8662,949832236,,talleressanzaguilar@gmail.com,,Affiliated Workshop,,C4316X,0020015947,lamborghini_api
Deutz-Fahr; Lamborghini Trattori; SAME; Huerlimann,AGROTRAC S.L.,"CARRETERA DE BARRAX,KM.1,",ALBACETE,ESPANA,ES,02080,38.9951,-1.85406,967 22 21 50,,info@agrotrac.es,https://agrotrac.sdfdealer.com/,Dealer,PARTS; SERVICE; TRACTORS,C87X,0010001983,lamborghini_api
SAME,AGRÍCOLA JAICER,"Pol. Ind. La Dehesa – C/ Haya, 4, ALMAZAN 42200",ALMAZAN,,ES,42200,41.469431,-2.535443,975 30 19 00,,,,,PARTS; SERVICE; TRACTORS,2413,,same_nuxt_es-es
Deutz-Fahr; Lamborghini Trattori; SAME; Huerlimann,ALCAIDE GARCIA VALERIANO,"Calle Villalobos, s/n",ALCALA LA REAL,ESPANA,ES,23680,37.4592,-3.92198,953 58 34 10,,talleresalcaide@yahoo.es,,Dealer,PARTS; SERVICE; TRACTORS,C112X,0010001050,lamborghini_api
SAME,ANGEL BADIA S.A.,"C./ ALMACELLAS,95, BINEFAR 22500",BINEFAR,,ES,22500,41.841489,0.300194,974 42 83 00,,,https://angelbadia.sdfdealer.com/,,PARTS; SERVICE; TRACTORS,2532,,same_nuxt_es-es
Deutz-Fahr; Lamborghini Trattori; SAME,ASTURCERES - WENCESLAO CAMINO GUTIERREZ RAÚL GARCÍA FUENTES,"Barrio Vegacorredor, 674 Polígono 6",Ramales de la Victoria,Cantabria,ES,39800,43.2649,-3.48683,-,,tc.w@asturceres.es,https://asturceres.sdfdealer.com/,Affiliated Workshop,PARTS; SERVICE,C4363X,0020024948,lamborghini_api
Deutz-Fahr; Lamborghini Trattori; SAME; Huerlimann,ASTURCERES S.L.,AVDA DE LA CONSTITUCION N.96,LA ESPINA SALAS,ESPANA,ES,33891,43.3952217,-6.3370232,985 83 71 45,,info@asturceres.es,https://asturceres.sdfdealer.com/,Dealer,PARTS; SERVICE; TRACTORS,C144X,0010001079,lamborghini_api
Deutz-Fahr; Lamborghini Trattori; SAME; Huerlimann,ASTURCERES S.L.- Delegación Ribadesella,"Pol. Ind. Guadamia, Fase II, Nave 21",RIBADESELLA,ESPAÑA,ES,33560,43.4347155,-5.0059988,985 04 89 38,,-,https://asturceres.sdfdealer.com/,Dealer Branch,PARTS; SERVICE; TRACTORS,C3202X,0010001079,lamborghini_api
Deutz-Fahr; Lamborghini Trattori; SAME; Huerlimann,ASTURCERES S.L.- Delegación Viella-Siero,"CTRA. DE LA ESTACION S/N, - POL. IND. DE NAÓN, NAV",VIELLA-SIERO,ESPANA,ES,33429,43.394564,-5.7897208,985 04 89 38,,viella@asturceres.es,https://asturceres.sdfdealer.com/,Dealer Branch,PARTS; SERVICE; TRACTORS,C143X,0010001079,lamborghini_api
Deutz-Fahr; Lamborghini Trattori; SAME; Huerlimann,AUTOAGRICOLA AZNAR - Talleres Fidalgo,"TALLERES FIDALGO Ctra Sagunto Burgos, Km 193",CALAMOCHA,ESPANA,ES,44200,40.9199,-1.29691,978730022,,contabilidad@autoagricolaaznar.com,www.autoagricolaaznar.com,Affiliated Workshop,PARTS; SERVICE,C1467X,0020015985,lamborghini_api
Deutz-Fahr; Lamborghini Trattori; SAME; Gregoire; Huerlimann,AUTOAGRICOLA FERNANDO AZNAR S.L,AVDA. DE GOYA S/N,RICLA,ESPANA,ES,50270,41.5015247,-1.3977232,976 81 85 96,,comercial@autoagricolaaznar.com,http://www.autoagricolaaznar.com,Dealer,PARTS; SERVICE; TRACTORS,C145X,0010001080,lamborghini_api
Deutz-Fahr; Lamborghini Trattori; SAME,AUTOAGRÍCOLA FERNANDO AZNAR - GRUAS HNOS. TORCAL SL,"Polígono La Charluca, calle AN12",Calatayud,ARAGÓN,ES,50300,41.3274786,-1.6414787,976884023,,hermanostorcal@hotmail.com,,Affiliated Workshop,PARTS; SERVICE,C4346X,0020026984,lamborghini_api
Deutz-Fahr; Lamborghini Trattori; SAME,AUTOMOTOR  -TALLERS I RECANVIS DIESEL,AVENIDA VALMANYA 110,ALCARRÁS,CATALUÑA,ES,25180,41.569133,0.52488,973795083,,info@tallersdiesel.com,,Affiliated Workshop,PARTS; SERVICE,C4386X,0020015920,lamborghini_api
Deutz-Fahr; Lamborghini Trattori; SAME; Huerlimann,"AUTOMOTOR, S.A.","POL. IND. EL SEGRE C/VICTORIANO MUÑOZ, 601",Lleida,ESPANA,ES,25191,41.6217079,0.662548599,973 201 350,,adm@automotorlleida.com,https://automotorlleida.deutz-fahr-dealer.com,Dealer,PARTS; SERVICE; TRACTORS,C3931X,0010003345,lamborghini_api
Deutz-Fahr; Lamborghini Trattori; SAME; Huerlimann,BASCULANTES GARPRA S.L.,"POL.IND.CAMPONARAYA SEC 1, NAVE 13",CAMPONARAYA,ESPANA,ES,24410,42.5671907,-6.66095179,987 46 34 30,,info@basculantesgarpra.es,https://basculantesgarpra.sdfdealer.com,Dealer,PARTS; SERVICE; TRACTORS,C115X,0010001053,lamborghini_api
Deutz-Fahr; Lamborghini Trattori; Huerlimann,CA N'ANDREU ES FERRER S.L.U.,C/ DELS TRENCADORS 1 POLIGONO INDUSTRIAL,"FERRERIES, MENORCA",ESPANA,ES,07750,39.98708,4.0201399,971 37 31 27,,canandreuesferrer@hotmail.es,https://canandreuesferrer.deutz-fahr-dealer.com,Dealer,PARTS; SERVICE; TRACTORS,C151X,0010001086,lamborghini_api
Deutz-Fahr; Lamborghini Trattori; SAME; Huerlimann,COMERCIAL AGRICOLA LOGAR S.A.,Pol. Ind. La Serreta  C/ Buenos Aires s/n,MOLINA DE SEGURA,España,ES,30500,38.0785144,-1.2274622,968 61 68 53,,marien@logar.info,www.logar.info,Dealer,PARTS; SERVICE; TRACTORS,C131X,0010001069,lamborghini_api
Deutz-Fahr; Lamborghini Trattori; SAME; Huerlimann,COMERCIAL AGRICOLA LOGAR S.A. - Hellin,Pol. Ind. San Rafael 3ª Fase,HELLIN,30,ES,02400,38.5393319,-1.7009574,967 17 91 18,,hellin@logar.info,www.logar.info,Dealer Branch,PARTS; SERVICE; TRACTORS,C132X,0010001069,lamborghini_api
Deutz-Fahr; Lamborghini Trattori; SAME; Huerlimann,COMERCIAL AGRICOLA LOGAR S.A. - Lorca,Paraje Puente El Vao Ctra. Lorca-Aguilas,LORCA,España,ES,30800,37.6576,-1.69509,868 17 83 68,,lorca@logar.info,www.logar.info,Dealer Branch,PARTS; SERVICE; TRACTORS,C1464X,0010001069,lamborghini_api
Deutz-Fahr; Lamborghini Trattori; SAME,COMERCIAL AGRICOLA LOGAR S.A. - Villena,"Pol. Ind. El Rubial, Calle Siete, 9-11",VILLENA,30,ES,03400,38.6380962,-0.8854595,966 84 32 37,,villena@logar.info,www.logar.info,Dealer Branch,PARTS; SERVICE; TRACTORS,C177X,0010001069,lamborghini_api
SAME,COMERCIAL PLANELLS FERRER.S.L.,"BARRIO CAN GUASCH,26, SANTA EULALIA DEL RIO, IBIZA 07840",IBIZA,,ES,07840,38.988056,1.524298,971 33 07 11,,,,,PARTS; SERVICE; TRACTORS; AGRICENTER,2571,,same_nuxt_es-es
Deutz-Fahr; Lamborghini Trattori; SAME; Huerlimann,COMERCIAL VEIRAS S.A.,"AVDA. SAN MARCOS, 65",SANTIAGO DE COMPOSTELA,ESPANA,ES,15890,42.8929819,-8.48543969,981 58 77 22,,admon@comercialveiras.com,https://comercialveiras.sdfdealer.com,Dealer,PARTS; SERVICE; TRACTORS,C154X,0010001089,lamborghini_api
Deutz-Fahr; Lamborghini Trattori; SAME,COMERCIAL VEIRAS S.A. - Agromecánica San Clemente,AGROMECANICA SAN CLEMENTE Mercurin,ORDES,ESPANA,ES,15680,43.1122,-8.41973,981 58 77 22,,agromecanicasclemente@comercialveiras.com,,Affiliated Workshop,PARTS; SERVICE,C2634X,0020015995,lamborghini_api
Deutz-Fahr; Lamborghini Trattori; SAME,COMERCIAL VEIRAS S.A. - Talleres Capelo,TALLERES CAPELO				 Olveira,DUMBRIA,ESPANA,ES,15151,42.9887,-9.03067,981 58 77 22,,tallerescapelo@comercialveiras.com,www.comercialveiras.com,Affiliated Workshop,PARTS; SERVICE,C2633X,0020015994,lamborghini_api
Deutz-Fahr; Lamborghini Trattori; Huerlimann,EGIMENDI NEKAZAL TRESNAK S.L.,AUTOVIA GASTEIZ-DONOSTIA. POL.IND. KATATEGI-1,IRURA,ESPANA,ES,20271,43.1690035,-2.0649378,943 69 04 90,,almacen@egimendi.net,https://egimendi.sdfdealer.com,Dealer,PARTS; SERVICE; TRACTORS,C156X,0010001091,lamborghini_api
SAME,EMMS.S.A.,"C/ LA MUNIA ,25, VILAFRANCA DEL PENEDES 08720",VILAFRANCA DEL PENEDES,,ES,08720,41.338467,1.686798,93 891 54 80,,,http://www.emms.es,,PARTS; SERVICE; TRACTORS,2145,,same_nuxt_es-es
Deutz-Fahr; Lamborghini Trattori; Huerlimann,ESPATRACTOR S.L.,POL IND APARICIO-PARCELA A,ESPARTINAS,ESPAÑA,ES,41807,37.3844774,-6.12281789,955 71 30 87,,espatractor@hotmail.com,www.espatractor.es,Dealer,PARTS; SERVICE; TRACTORS,C163X,0010001098,lamborghini_api
Deutz-Fahr; Lamborghini Trattori; SAME,G.B.V.  AGRÍCOLA - FRANCISCO PASCUAL CUBEDO REDONDO,"C/ Periodista Manolo Molés, 23",Alquerías del Niño Perdio,COMUNIDAD VALENCIANA,ES,12539,39.8969,-0.106395,672166000,,furgonetaller@gmail.com,,Affiliated Workshop,SERVICE,C4509X,0020027613,lamborghini_api
Deutz-Fahr; Lamborghini Trattori; SAME; Huerlimann,G.B.V. AGRICOLA SL.,"POL. IN. SUR, PARCELA 27",ALGINET,ESPANA,ES,46230,39.2508423,-0.477347499,96 175 00 93,,administracion@gbvagricola.com,https://gbvagricola.sdfdealer.com/,Dealer,PARTS; SERVICE; TRACTORS,C164X,0010001099,lamborghini_api
Deutz-Fahr; Lamborghini Trattori; SAME,G.B.V. AGRICOLA SL. - Miguel Garcia Pardo,"Pol. Ind. El Melero - Avda. Industria, 52",UTIEL,ESPAÑA,ES,46300,39.5767,-1.20626,606578995,,-,,Independent workshop,SERVICE,C4091X,0020024520,lamborghini_api
Deutz-Fahr; Lamborghini Trattori; SAME,G.B.V. AGRICOLA SL. - Talleres Luis Pradas,"AVDA. DEL OESTE, 6",BETERA,ESPAÑA,ES,46117,39.5941,-0.466567,961691438,,-,,Affiliated Workshop,SERVICE,C4092X,0020024891,lamborghini_api
SAME,"GERMANS VAQUER ASENSIO, S.L.","C/ DUSAI, 26, PORRERES 07260",PORRERES,,ES,07260,39.517000,3.022660,971 64 75 04,,,,,PARTS; SERVICE; TRACTORS,2924,,same_nuxt_es-es
Deutz-Fahr; Lamborghini Trattori; SAME; Gregoire; Huerlimann; ViTiBOT,HERMANOS CALVO ALMUNIA SL,"JESUS ONOS, S/N",MILAGRO,ESPANA,ES,31320,42.2422551,-1.7670466,948861143,,hnoscalvo_jccm@hotmail.com,http://www.calvoalmunia.com,Dealer,PARTS; SERVICE; TRACTORS; AGRICENTER,C84X,0010001023,lamborghini_api
Deutz-Fahr; Lamborghini Trattori; SAME; Huerlimann,HIJOS DE ANTONIO REAL S.L.,"P.I. LOS CERROS  CTRA DE VILCHES, 1",UBEDA,ESPANA,ES,23400,38.0246103,-3.3706501,953 79 21 91,,info@tractoresreal.com,http://tractoresreal.sdfdealer.com,Dealer,PARTS; SERVICE; TRACTORS,C171X,0010001105,lamborghini_api
Deutz-Fahr; Lamborghini Trattori; SAME; Huerlimann,HIJOS DE ANTONIO REAL S.L. - Córdoba,POL. IND. LA TORRECILLA C/ INGENIERO TORRES QUEVED,CÓRDOBA,ESPANA,ES,14013,37.8564977,-4.791913,957 34 30 01,,manoli@tractoresreal.com,http://tractoresreal.sdfdealer.com,Dealer Branch,PARTS; SERVICE; TRACTORS,C170X,0010001031,lamborghini_api
SAME,MAGRISA,"ALFREDO NOBEL,1, LAS PALMAS 35013",LAS PALMAS,,ES,35013,28.094168,-15.450931,928 41 54 96,,,http://www.magrisacanarias.es/,,PARTS; SERVICE; TRACTORS; AGRICENTER,2558,,same_nuxt_es-es
SAME,MAQUINARIA AGRICOLA CARINANOS S.A.,"POL.IND.GALZAR C/ GURUTXE-BIDE,4, SALVATIERRA 01200",SALVATIERRA,,ES,01200,42.849446,-2.409557,945 30 07 25,,,http://www.cariñanos.es,,PARTS; SERVICE; TRACTORS,2793,,same_nuxt_es-es
Lamborghini Trattori,MAQUINARIA AGRÍCOLA RUSIÑOL - TORRAS MAQUINARIA,"Ctra. Sabadell a Mollet, km. 5,5",Santa Perpetua de Mogoda,CATALUÑA,ES,08130,41.5337785,2.1718983,935603097,,recambios@rusinyol.com,https://torrasmaquinaria.sdfdealer.com/,Independent workshop,,C137C,0020021640,lamborghini_api
Deutz-Fahr; Lamborghini Trattori; SAME,RECANVIS AGRICOLES ALBAREDA S.L.,"C/ Comptat d'Osona, 15",VIC,,ES,08500,41.9343996,2.2607164,93 886 06 20,,mariano@recanvisalbareda.com,www.recanvisalbareda.com,Independent workshop,PARTS; SERVICE,C94X,0020015986,lamborghini_api
Deutz-Fahr; Lamborghini Trattori; SAME; Huerlimann,REMAGRI  S.L.,POL. IND. LOS CERROS C/ TRANSPORTE,UBEDA,ESPAÑA,ES,23400,38.0245411,-3.3703916,953 792 191,,manoli@tractoresreal.com,http://tractoresreal.sdfdealer.com,Dealer,PARTS; SERVICE; TRACTORS,C92X,0010001031,lamborghini_api
Deutz-Fahr; Lamborghini Trattori; SAME; Huerlimann,REMAGRI - Hijo de Manuel Gomez Ortega S.L.,CAMINO DE LAS INFANTAS S/N,FUERTE DEL REY,ESPANA,ES,23180,37.874373,-3.8797622,953 37 50 10,,info@maquinariahgo.es,http://tractoresreal.sdfdealer.com,Affiliated Workshop,PARTS; SERVICE,C86X,0020025684,lamborghini_api
Deutz-Fahr; Lamborghini Trattori; SAME,REMAGRI - TALLER JUAN MONTES,"CTRA. DE CABRA, S/N",LUCENA,ESPAÑA,ES,13490,37.4240073,-4.47871819,-,,tallerjuanmontes@hotmail.com,http://tractoresreal.sdfdealer.com,Affiliated Workshop,PARTS; SERVICE,C4228X,0020015862,lamborghini_api
Deutz-Fahr; Lamborghini Trattori; SAME; Huerlimann,REP. AGR. SEGOVIA - DIVISION CASTILLA Y LEON,"P.I. Tierra de Arevalo, 9",AREVALO,ESPAÑA,ES,05200,41.0702,-4.72908,-,,recambios@agrsegovia.com,,Affiliated Workshop,PARTS; SERVICE,C2635X,0020022010,lamborghini_api
Deutz-Fahr; Lamborghini Trattori; SAME; Gregoire,REPUESTOS AGRÍCOLAS SEGOVIA,"Ctra. Cuellar a Sta. María de Nieva KM. 43,550",NIEVA,ESPAÑA,ES,40447,41.0767101,-4.4174387,921594597,,jsanz@agrsegovia.com,,Dealer,PARTS; SERVICE; TRACTORS,C4083X,0010003406,lamborghini_api
Deutz-Fahr; Lamborghini Trattori; SAME; Gregoire,REPUESTOS AGRÍCOLAS SEGOVIA - TALLER JOSÉ FÉLIZ PASCUAL GIL,"Avenida de Costaján, n.6",Aranda de Duero,Castilla y León,ES,09400,41.6935166896534,-3.68420581650651,636615036,,talleresagrojoal@gmail.com,,Affiliated Workshop,PARTS; SERVICE,C356C,0020028485,lamborghini_api
SAME,Solicita presupuesto,,,,ES,,,,,,,,,TRACTORS,4,,same_nuxt_es-es
Deutz-Fahr; Lamborghini Trattori; SAME; Huerlimann,"TALLER EMPALME - MILLARES TORRON, SL","CTRA. de SANTIAGO, KM 5",LUGO,ESPANA,ES,27210,42.9668101,-7.59864839,982221966,,correo@millarestorron.com,https://tallerempalme.sdfdealer.com,Affiliated Workshop,PARTS; SERVICE,C119X,0020024271,lamborghini_api
Deutz-Fahr; Lamborghini Trattori; Huerlimann,TALLER EMPALME VILLALBA S.L.,SAN JORGE RIO AVIESO,SAN JORGE - VILLALBA,ESPANA,ES,27818,43.2759,-7.60377,982 51 16 31,,info@tallerempalme.com,https://tallerempalme.sdfdealer.com,Dealer,PARTS; SERVICE; TRACTORS,C159X,0010001094,lamborghini_api
Deutz-Fahr; Lamborghini Trattori; Huerlimann,TALLER JOSÉ ANTONIO GARCÍA S.L.,"POLIGONO LA LAGUNA, NAVE 9",ALCANIZ,ESPANA,ES,44600,41.0541499,-0.1537587,978 83 05 61,,garciafuster@live.com,http://www.garciafustertaller.es,Dealer,PARTS; SERVICE; TRACTORS,C96X,0010001997,lamborghini_api
Deutz-Fahr; Lamborghini Trattori; SAME,TALLER MECANIC FONT S.R L.,AFORES GUARDIOLA S/N,LA BISBAL D´EMPORDÀ,ESPAÑA,ES,17100,41.9521306,3.0449865,972 64 09 06,,admin@tallersfont.com,,Dealer,PARTS; SERVICE; TRACTORS,C136X,0010001072,lamborghini_api
Deutz-Fahr; Lamborghini Trattori; SAME; Huerlimann,TALLERES BARTOLOME RODRIGUEZ SL,"C/ LA ARTIGA, PARCELA 10  P.I.LA HINIESTA",ZAMORA,ESPANA,ES,49025,41.5082,-5.74794,980 52 57 58,,info@talleresbartolome.com,http://www.talleresbartolome.com,Dealer,PARTS; SERVICE; TRACTORS,C141X,0010001077,lamborghini_api
Deutz-Fahr; Lamborghini Trattori; SAME; Huerlimann,TALLERES BARTOLOME RODRIGUEZ SL - SALAMANCA,"C/ GUATEMALA, 105-107, P.I. LOS VILLARES",VILLARES DE REINA,ESPANA,ES,37184,40.9973585,-5.6492043,980 52 57 58,,info@talleresbartolome.com,http://www.talleresbartolome.com,Dealer Branch,PARTS; SERVICE; TRACTORS,C26C,0010001077,lamborghini_api
Deutz-Fahr; Lamborghini Trattori; SAME; Huerlimann,TALLERES BARTOLOME SL - TALLERES LISBOA,"C/ NOBEL, PAC.113 P.I. EL MONTALVO I",SALAMANCA,ESPANA,ES,37008,40.9428128,-5.6624053,923 190 464,,info@tallereslisboa.es,www.talleresbartolome.com,Affiliated Workshop,PARTS; SERVICE,C140X,0020015982,lamborghini_api
Deutz-Fahr; Lamborghini Trattori; SAME; Huerlimann,TALLERES VILLORIA - RUIZ CALDERON,"AVDA. SANTANDER, 3",AGUILAR DE CAMPOO,ESPANA,ES,34800,42.7935,-4.25521,945 30 07 25,,ruizcalderongarcia@gmail.com,,Affiliated Workshop,PARTS; SERVICE,C85X,0020024875,lamborghini_api
SAME,TALLERES VILLORIA LOPEZ S.L.,"CTRA. GENERAL 2, MAYORGA 47680",MAYORGA,,ES,47680,42.159298,-5.266330,983 75 13 66,,,http://www.talleresvilloria.es/,,PARTS; SERVICE; TRACTORS,2096,,same_nuxt_es-es
SAME,TAVEMA S.L.,"CTRA NUEVA S.N., ALAYOR - MENORCA 07730",ALAYOR - MENORCA,,ES,07730,39.932584,4.134913,971 37 13 13,,,http://www.tavema.com/,,PARTS; SERVICE; TRACTORS,2547,,same_nuxt_es-es
SAME,TORRAS MAQUINARIA DEL BAGES S.L.,"Carrer Antonio Machado, 2, Santo Joan de Vilatorrada 08250",Santo Joan de Vilatorrada,,ES,08250,41.735825,1.802786,938 73 03 36,,,https://torrasmaquinaria.sdfdealer.com/,,PARTS; SERVICE; TRACTORS,2559,,same_nuxt_es-es
SAME,TOT TRACTOR S.L.,"CTRA. NACIONAL 340, KM 1053, NAVE 2, VINAROZ 12500",VINAROZ,,ES,1053,40.471200,0.474940,964 45 54 56,,,http://www.tottractor.com,,PARTS; SERVICE; TRACTORS,2916,,same_nuxt_es-es
Lamborghini Trattori; Huerlimann,TRACTOGARDEN S.L.,C/ PARTIDA CAPSADES 3,VINAROZ,ESPANA,ES,12500,40.4642821,0.4630231,964 40 05 92,,tractogarden@tractogarden.com,,Dealer,PARTS; SERVICE; TRACTORS,C149X,0010001084,lamborghini_api
Deutz-Fahr; Lamborghini Trattori; SAME,TRACTONIN - AUTOMECANICA TERRA ALTA,CALLE TARRAGONA 13,BATEA,,ES,43786,41.0944,0.313961,635224476,,automecanicaterraalta@gmail.com,,Independent workshop,PARTS,C61C,0020024902,lamborghini_api
Deutz-Fahr; Lamborghini Trattori; SAME,TRACTONIN - JOSEP GISBERT VIDAL,C/ROSINYOL 40,VILALBA DELS ARCS,,ES,43782,41.1223,0.405168,977438016,,tagisbert@tallergisbert.com,,Independent workshop,PARTS,C55C,0020023565,lamborghini_api
Deutz-Fahr; Lamborghini Trattori; SAME; Huerlimann,TRACTONIN - TALLERES DOLZ CIVOR,"Avenida Caspe, s/n",MAELLA,ESPAÑA,ES,50710,41.1281283,0.1318773,976 63 84 98,,eltallerdemaella@gmail.com,,Affiliated Workshop,PARTS; SERVICE,C4222X,0020025026,lamborghini_api
Deutz-Fahr; Lamborghini Trattori; SAME,"TRACTONIN - VERDCAMP FRUITS, S.A.T. 1132 CAT",APARTADO 170 - MASSIA BARRABEIG,CAMBRILS,,ES,43850,41.0832,1.01107,977793859,,jordibp@verdcampfruits.com,,Independent workshop,PARTS,C60C,0020023679,lamborghini_api
Deutz-Fahr; Lamborghini Trattori; SAME; Huerlimann,TRACTONIN S.L.,"CARRER PERE CALDERS,24",REUS,ESPANA,ES,43206,41.1529,1.1148,977 313 862,,info@tractonin.cat,http://www.tractonin.cat,Dealer,PARTS; SERVICE; TRACTORS,C166X,0010001101,lamborghini_api
Deutz-Fahr; Lamborghini Trattori; SAME; Huerlimann,TRACTOR MORON S.L.,"Ctra. Morón-Montellano, Km 3",MORON DE LA FRONTERA,ESPANA,ES,41530,37.1294,-5.45282,95 485 21 32,,info@agrialba.com,https://agrialba.sdfdealer.com,Dealer,PARTS; SERVICE; TRACTORS,C128X,0010001066,lamborghini_api
SAME,AGROMEHANIKA AC D.O.O.,"MIROSLAVA PRODANOVICA MICKA, 4, NOVI  SAD   - SERBIA - 21000",NOVI  SAD   - SERBIA -,,EU,21000,45.285400,19.818000,+381 21 419071,,,,,PARTS; SERVICE; TRACTORS,1272,,same_nuxt_en-eu
SAME,AGROVOJVODINA MEHANIZACIJA,"PRVOMAJSKA B.B. N. PINTIJA, SKOPJE MK-1000",SKOPJE MK-,,EU,1000,41.997300,21.428000,+389.2.2794.124,,,www.agrovojvodina.eu,,PARTS; SERVICE; TRACTORS,2075,,same_nuxt_en-eu
SAME,CONTSTAR KERESKEDELMI ES,"Hankóczy Jenő utca 8/A. 1.em.3, BUDAPEST 1022",BUDAPEST,,EU,1022,47.515100,19.012300,+36306550885,,,www.contstar.hu,,PARTS; SERVICE; TRACTORS,2069,,same_nuxt_en-eu
SAME,CONTSTAR Kft. - Gyöngyös,"Petfői utca 17, Gyöngyös 3200",Gyöngyös,,EU,3200,47.787300,19.925500,-,,,www.contstar.hu,,PARTS; SERVICE; TRACTORS,1259,,same_nuxt_en-eu
SAME,CONTSTAR Kft. - Nyíregyháza,"Debreceni út 103, Nyíregyháza 4400",Nyíregyháza,,EU,4400,47.935000,21.718400,-,,,www.contstar.hu,,PARTS; SERVICE; TRACTORS; AGRICENTER,1258,,same_nuxt_en-eu
SAME,GOLIC TRADE D.O.O.,"Romanovci bb, Gradiška 78400",Gradiška,,EU,78400,45.052400,17.311600,+387.51.890.200,,,https://www.golictrade.com/,,PARTS; SERVICE; TRACTORS,2073,,same_nuxt_en-eu
SAME,Krzisnik Andraz s.p.,"Dolencice 10, Poljane nad Š.L. 4223",Poljane nad Š.L.,,EU,4223,46.154933,14.172166,+386 51 805740,,,,,PARTS; SERVICE; TRACTORS,6047,,same_nuxt_en-eu
SAME,NHR Agropartners SRL,"Calea Bucurestiolor 247, Loc. Otopeni, Jud. Ilfov, Otopeni 075100",Otopeni 075100,,EU,,44.560326,26.068407,+40213007906,,,www.nhr.ro,,PARTS; SERVICE; TRACTORS; AGRICENTER,2039,,same_nuxt_en-eu
SAME,POGONI SHPK,"PROGER NO 45 DEVOLL, KORCE 7011",KORCE,,EU,7011,40.685400,20.922600,+355 87380644,,,www.pogonitractor.com,,PARTS; SERVICE; TRACTORS; AGRICENTER,2081,,same_nuxt_en-eu
SAME,THEOCARAKIS S.A. - Athens,"169,ATHION AVENUE, Athens 10447",Athens,,EU,10447,37.995287,23.695312,210 3479700,,,www.samedeutz-fahr.gr,,PARTS; SERVICE; TRACTORS,2061,,same_nuxt_en-eu
SAME,THEOCARAKIS S.A. - Thessaloniki,"5th klm Nat. Road Thessaloniki-Katerini, Thessaloniki 57009",Thessaloniki,,EU,57009,40.654600,22.878700,210 3479700,,,www.samedeutz-fahr.gr,,PARTS; SERVICE; TRACTORS,474,,same_nuxt_en-eu
SAME,TO-DA d.o.o.,"Spodnje Bitnje 24, Zabnica 4209",Zabnica,,EU,4209,46.204479,14.333293,-,,,www.to-da.si,,PARTS; SERVICE; TRACTORS,26,,same_nuxt_en-eu
SAME,TRAKOM D.O.O.,"ZADOBROVA 069, SKOFJAVAS   -SLOVENIA- 3211",SKOFJAVAS   -SLOVENIA-,,EU,3211,46.263643,15.308913,+386 (0)3 5461870,,,www.trakom-slo.com,,PARTS; SERVICE; TRACTORS,2064,,same_nuxt_en-eu
SAME,PFG Australia,"199 AUSTRALIS DRIVE, MELBOURNE 3030",MELBOURNE,,FE,3030,-37.803662,144.769149,1800 872 2867,,,www.pfgaustralia.com.au,,PARTS; SERVICE; TRACTORS,2056,,same_nuxt_en-fe
SAME,POWER FARMING WHOLESALE LIMITED,"110 Thames Street, MORRINSVILLE 3300",MORRINSVILLE,,FE,3300,-37.660312,175.523245,+ 64 7 902 2200,,,www.powerfarming.co.nz,,PARTS; SERVICE; TRACTORS,2875,,same_nuxt_en-fe
SAME,AGRI FROT,"14, route de Sully, BONNEE 45460",BONNEE,,FR,45460,47.791448,2.379174,02 38 36 31 32,,,,,PARTS; SERVICE; TRACTORS,2887,,same_nuxt_fr-fr
Deutz-Fahr; Lamborghini Trattori; GreenPro,AGROLEIX 24 SARL,Le Bourg,BORREZE,France,FR,24590,44.9538795,1.3888144,05 53 28 83 39,,agroleix24@orange.fr,,Dealer,PARTS; SERVICE; TRACTORS,C5591X,0010000814,lamborghini_api
Deutz-Fahr; Lamborghini Trattori; SAME,ALFADOU SARL,Route de Baume-les-Dames,GONSANS,France,FR,25360,47.235822,6.303405,03 81 55 25 65,,info.alfadou@alfadou.fr,www.alfadou.fr,Dealer,PARTS; SERVICE; TRACTORS; AGRICENTER,C5593X,0010000815,lamborghini_api
Deutz-Fahr; Lamborghini Trattori; SAME,AMB SAS - MAROLLES,"1, rue des Ormeaux",MAROLLES,France,FR,51300,48.7152681,4.62437649,03 26 74 05 55,,valerie.comptabilite@agriviti.fr,www.gdv-agriviti.fr,Dealer Branch,PARTS; SERVICE; TRACTORS,C5667X,0010003133,lamborghini_api
Deutz-Fahr; Lamborghini Trattori; SAME; GreenPro,ANSELIN SA,1 RUE DU HAMEL,GRANDCOURT,France,FR,76660,49.9139,1.48949,02 32 97 56 70,,grandcourt@anselin.net,www.anselin.net,Dealer,PARTS; SERVICE; TRACTORS,C5751X,0010000947,lamborghini_api
Deutz-Fahr; Lamborghini Trattori; SAME; GreenPro,ANSELIN SA - ANNOUVILLE,"11, rue des bacs",ANNOUVILLE,France,FR,76110,49.6764813,0.431981,02 35 27 73 45,,annouville@anselin.net,www.anselin.net,Dealer Branch,PARTS; SERVICE; TRACTORS,C1421X,0010000947,lamborghini_api
Deutz-Fahr; Lamborghini Trattori; SAME; GreenPro,ANSELIN SA - BERMONVILLE,"7, rue du bout joyeux",BERMONVILLE,France,FR,76640,49.6400936,0.632597899,02 35 96 70 11,,bermonville@anselin.net,www.anselin.net,Dealer Branch,PARTS; SERVICE; TRACTORS,C5750X,0010000947,lamborghini_api
Deutz-Fahr; Lamborghini Trattori; SAME; GreenPro,ANSELIN SA - DOMART EN PONTHIEU,"20, route de Franqueville",DOMART EN PONTHIEU,France,FR,80620,50.0804777,2.1195778,03 22 54 88 88,,domart@anselin.net,www.anselin.net,Dealer Branch,PARTS; SERVICE; TRACTORS,C5752X,0010000947,lamborghini_api
Deutz-Fahr; Lamborghini Trattori; SAME; GreenPro,ANSELIN SA - ESCLAVELLES,Les Hayons,ESCLAVELLES,France,FR,76270,49.6953506,1.3628073,02 35 93 15 72,,leshayons@anselin.net,www.anselin.net,Dealer Branch,PARTS; SERVICE; TRACTORS,C5753X,0010000947,lamborghini_api
Deutz-Fahr; Lamborghini Trattori; SAME,ANSELIN SA - FEUQUIERES,10 RUE DU SEPT JUIN,FEUQUIERES,France,FR,60960,49.6473078,1.8486578,03 44 04 51 35,,feuquieres@anselin.net,,Dealer Branch,PARTS; SERVICE; TRACTORS,C2861X,0010000947,lamborghini_api
Deutz-Fahr; Lamborghini Trattori; SAME; GreenPro,BALLAND ET FILS SARL,6 bis route de la gare,DOMFAING,France,FR,88600,48.2413637,6.7431126,03 29 51 31 89,,m.balland@wanadoo.fr,,Dealer,PARTS; SERVICE; TRACTORS; AGRICENTER,C34X,0010000973,lamborghini_api
SAME,BALTHAZARD SARL,"107, rue Charles de Gaulle, ORBEY 68370",ORBEY,,FR,68370,48.121341,7.149714,03 89 71 21 01,,,,,PARTS; SERVICE; TRACTORS,2724,,same_nuxt_fr-fr
SAME,BAYARD,"Route Nationale, MOULLE 62910",MOULLE,,FR,62910,50.787500,2.176490,03 21 93 75 58,,,www.ets-bayard.fr,,PARTS; SERVICE; TRACTORS; AGRICENTER,2742,,same_nuxt_fr-fr
Lamborghini Trattori; SAME,BELLIER,Z.I. de Marcerolles,BOURG LES VALENCE,France,FR,26500,44.9647,4.88316,04 75 83 29 64,,bellier@sarlbellier.fr,,Dealer,PARTS; SERVICE; TRACTORS; AGRICENTER,C5596X,0010000818,lamborghini_api
Deutz-Fahr; Lamborghini Trattori; SAME; Gregoire,BERNARD ET BREMOND,"1579, route de Nyons",PUYMERAS,France,FR,84110,44.2767294,5.11023089,04 90 46 43 17,,contact@bernardetbremond.fr,www.bernardbremond.fr,Dealer,PARTS; SERVICE; TRACTORS,C23X,0010000963,lamborghini_api
SAME,BILLAUD SEGEBA SAS,"200, boulevard de Poitiers, BRESSUIRE 79300",BRESSUIRE,,FR,79300,46.834431,-0.453425,05 49 74 11 55,,,www.billaud-segeba.com,,PARTS; SERVICE; TRACTORS,2095,,same_nuxt_fr-fr
SAME,BILLAUD SEGEBA SAS - CHATILLON SUR THOUET,"36, route de Bressuire, CHATILLON SUR THOUET 79200",CHATILLON SUR THOUET,,FR,79200,46.670550,-0.255399,05 49 95 13 36,,,www.billaud-segeba.com,,PARTS; SERVICE; TRACTORS,2859,,same_nuxt_fr-fr
SAME,BILLAUD SEGEBA SAS - L'OIE,"Rue des artisans, L'OIE 85140",L'OIE,,FR,85140,46.802878,-1.133101,02 51 66 13 98,,,www.billaud-segeba.com,,PARTS; SERVICE; TRACTORS,2893,,same_nuxt_fr-fr
SAME,BILLAUD SEGEBA SAS - MAREUIL SUR LAY,"Z.I. les Bourrelières, MAREUIL SUR LAY 85320",MAREUIL SUR LAY,,FR,85320,46.526193,-1.211238,02 51 30 50 15,,,www.billaud-segeba.com,,PARTS; SERVICE; TRACTORS,2838,,same_nuxt_fr-fr
SAME,BILLAUD SEGEBA SAS - NEUVILLE DE POITOU,"41, rue de la Croix Berthon, NEUVILLE DE POITOU 86170",NEUVILLE DE POITOU,,FR,86170,46.683890,0.258020,05 49 03 18 81,,,www.billaud-segeba.com,,PARTS; SERVICE; TRACTORS,2861,,same_nuxt_fr-fr
SAME,BILLAUD SEGEBA SAS - PRAHECQ,"Z.A. La Fiée des Lois Rue Ampère, PRAHECQ 79230",PRAHECQ,,FR,79230,46.268309,-0.369275,05 49 26 94 80,,,www.billaud-segeba.com,,PARTS; SERVICE; TRACTORS,2865,,same_nuxt_fr-fr
SAME,BILLAUD SEGEBA SAS - ST MARTIN DE FRAIGNEAU,"Z.I. du Fief Quart, SAINT MARTIN DE FRAIGNEAU 85200",SAINT MARTIN DE FRAIGNEAU,,FR,85200,46.442783,-0.755970,02 51 00 21 33,,,www.billaud-segeba.com,,PARTS; SERVICE; TRACTORS,2821,,same_nuxt_fr-fr
SAME,BILLAUD SEGEBA SAS - VIVONNE,"Zone artisanale L'Anjouinière - RN 10, VIVONNE 86370",VIVONNE,,FR,86370,46.460154,0.268701,05 49 43 49 33,,,,,PARTS; SERVICE; TRACTORS,2869,,same_nuxt_fr-fr
Lamborghini Trattori; SAME,BRESSE JURA AGRI,"115, Rue de l' École Nantey",VAL D'EPY,France,FR,39160,46.4075893,5.3985663,03 84 48 78 04,,bja@arban-agri.com,,Authorized Workshop,PARTS; SERVICE; TRACTORS,C5627X,0010000847,lamborghini_api
SAME,BURCKBUCHLER SARL,"24, rue de la Libération, OBERLAUTERBACH 67160",OBERLAUTERBACH,,FR,67160,48.946252,8.069933,03.88.94.30.51,,,,,PARTS; SERVICE; TRACTORS; AGRICENTER,2892,,same_nuxt_fr-fr
SAME,CABROL SARL,"5, avenue de la Fabrique, CASTELNAU DE GUERS 34120",CASTELNAU DE GUERS,,FR,34120,43.438013,3.438481,04 67 98 18 20,,,www.cabrol-materielagricole.com,,PARTS; SERVICE; TRACTORS,2959,,same_nuxt_fr-fr
Lamborghini Trattori; GreenPro,CAROFF ET FILS SARL - MECANIQUE AGRICOLE MOTOCULTURE,"42 bis, rue Ravaz",SEGONZAC,France,FR,16130,45.6208381,-0.2231716,05 45 83 44 26,,caroff.motocultureespacevert@orange.fr,www.caroff-motoculture.fr,Authorized Workshop,PARTS; SERVICE; TRACTORS,C846X,0010001773,lamborghini_api
Lamborghini Trattori; SAME,CELESTIN,Route de Saint Mont,RISCLE,France,FR,32400,43.6551,-0.090166,05 62 69 72 36,,celestin@celestin.fr,,Dealer,PARTS; SERVICE; TRACTORS,C5612X,0010000833,lamborghini_api
SAME,CHALAN SARL,"1543 Chemin des Oriols, LAPALUD 84840",LAPALUD,,FR,1543,44.320932,4.677773,04 75 04 20 46,,,www.etschalan.com,,PARTS; SERVICE; TRACTORS,2815,,same_nuxt_fr-fr
SAME,CHANCEAULME,"2, route des Anes, VELINES 24230",VELINES,,FR,24230,44.849344,0.108240,05 53 74 44 60,,,,,PARTS; SERVICE; TRACTORS,2763,,same_nuxt_fr-fr
SAME,CHANCEAULME - ST DENIS DE PILE,"Zone de Beaumale, ST DENIS DE PILE 33910",ST DENIS DE PILE,,FR,33910,44.993380,-0.196942,05 57 55 59 40,,,,,PARTS; SERVICE; TRACTORS,2914,,same_nuxt_fr-fr
SAME,CHAXEL ETS - SASU LA MADELEINE,"40, rue Aimé Bouchaye, SEMEAC 65600",SEMEAC,,FR,65600,43.216855,0.102185,05 62 37 80 97,,,,,PARTS; SERVICE; TRACTORS,2781,,same_nuxt_fr-fr
SAME,CHEVALIER ROBERT SARL,"Route de Pompadour, JUILLAC 19350",JUILLAC,,FR,19350,45.324225,1.318988,05 55 25 60 62,,,www.chevalier-materiel-agricole.com,,PARTS; SERVICE; TRACTORS,2758,,same_nuxt_fr-fr
SAME,CHEVALIER ROBERT SARL - LUBERSAC,"Z.A. Touvent, LUBERSAC 19210",LUBERSAC,,FR,19210,45.448700,1.421260,05 55 73 52 92,,,www.chevalier-materiel-agricole.com,,PARTS; SERVICE; TRACTORS,2853,,same_nuxt_fr-fr
Deutz-Fahr; Lamborghini Trattori,CHIQUIRIN,Uhart Cize,SAINT JEAN PIED DE PORT,France,FR,64220,43.1657826,-1.2449627,05 59 37 01 00,,jf.duhalde@orange.fr,,Dealer,PARTS; SERVICE; TRACTORS,C5707X,0010000909,lamborghini_api
SAME,CMAC SAS,"Route de Clayette, CHAUFFAILLES 71170",CHAUFFAILLES,,FR,71170,46.208400,4.320830,03 85 26 00 67,,,www.guyonnet-agri.com,,PARTS; SERVICE; TRACTORS,2780,,same_nuxt_fr-fr
Deutz-Fahr; Lamborghini Trattori; SAME,COLINET ET FILS ETS,"411, rue de la cassette ZA Les plaines",SAINT-MARTIN-EN-HAUT,France,FR,69850,45.6488,4.55424,04 78 48 61 25,,contact@colinet.fr,www.colinet.fr,Dealer,PARTS; SERVICE; TRACTORS,C5737X,0010000938,lamborghini_api
Deutz-Fahr; Lamborghini Trattori; SAME,COLINET ET FILS ETS - BAGE DOMMARTIN,"1060, Route de Pont de Vaux",BAGE DOMMARTIN,,FR,01380,46.3227733848188,4.93447145483498,03 85 31 19 31,,administratifabp@colinet.fr,www.colinet.fr,Dealer Branch,,C429C,0010000938,lamborghini_api
Deutz-Fahr; Lamborghini Trattori; SAME,COLINET ET FILS ETS - LONGES,"60, Grand Rue",LONGES,France,FR,69420,45.5070788,4.68674789,04 72 49 22 70,,administratifap@colinet.fr,www.colinet.fr,Dealer Branch,PARTS; SERVICE; TRACTORS,C5736X,0010000938,lamborghini_api
Deutz-Fahr; Lamborghini Trattori; SAME,COLINET ET FILS ETS - MONTROTTIER,Haute Brévenne Agricole 19 Impasse de la croix Be,MONTROTTIER,France,FR,69770,45.8043,4.47201,-,,-,www.colinet.fr,Dealer Branch,PARTS; SERVICE; TRACTORS,C3914X,0010000938,lamborghini_api
Deutz-Fahr; Lamborghini Trattori; SAME,COLINET ET FILS ETS - SANDELION AGRI BEAUJOLAIS,Saint-Joseph,VILLIE MORGON,France,FR,69910,46.1749719,4.6362244,04 74 69 90 53,,administratifsab@colinet.fr,www.colinet.fr,Dealer Branch,PARTS; SERVICE; TRACTORS,C1425X,0010000938,lamborghini_api
Lamborghini Trattori; SAME,DAUSQUE AGRI SAS,Chaussée Brunehaut,LEDINGHEM,France,FR,62380,50.6432086,1.9760546,03 21 39 73 87,,dausque.agri@wanadoo.fr,www.dausqueagri.com,Dealer,PARTS; SERVICE; TRACTORS,C5701X,0010000904,lamborghini_api
SAME,DUMONTAUX,"Le bourg, DONTREIX 23700",DONTREIX,,FR,23700,45.986715,2.555710,05 55 67 04 11,,,www.dumontaux.fr,,PARTS; SERVICE; TRACTORS,2762,,same_nuxt_fr-fr
SAME,DUMONTAUX - AUZANCES,"Avenue de la gare, AUZANCES 23700",AUZANCES,,FR,23700,46.028315,2.496525,05 55 83 94 64,,,www.dumontaux.fr,,PARTS; SERVICE; TRACTORS,2854,,same_nuxt_fr-fr
SAME,DUMONTAUX - CRESSAT,"2, Cressat - Gare, CRESSAT 23140",CRESSAT,,FR,23140,46.132706,2.118611,05 32 74 02 32,,,,,PARTS; SERVICE; TRACTORS,2866,,same_nuxt_fr-fr
SAME,DUMONTAUX - MALLERET BOUSSAC,"Le poteau, MALLERET BOUSSAC 23600",MALLERET BOUSSAC,,FR,23600,46.335354,2.154238,05 55 65 05 06,,,www.dumontaux.fr,,PARTS; SERVICE; TRACTORS,2837,,same_nuxt_fr-fr
SAME,DUMONTAUX - ST JULIEN PUY LAVEZE,"Zone d'activités de la Courtine, SAINT JULIEN PUY LAVEZE 63820",SAINT JULIEN PUY LAVEZE,,FR,63820,45.651208,2.701406,-,,,,,PARTS; SERVICE; TRACTORS,522,,same_nuxt_fr-fr
SAME,DURY MOTOCULTURE SARL,"Le bourg, AVRILLY 03130",AVRILLY,,FR,03130,46.332928,3.979579,04 70 55 31 10,,,,,PARTS; SERVICE; TRACTORS,2768,,same_nuxt_fr-fr
Deutz-Fahr; Lamborghini Trattori; SAME; Gregoire,FERT MATERIELS SARL - SAINT GENIES DE MALGOIRES,"5, Les Gousats",SAINT GENIES DE MALGOIRES,France,FR,30190,43.945025,4.228958,04 66 37 83 38,,stgenies@fertmateriels.com,www.fertmateriels.com,Dealer Branch,PARTS; SERVICE; TRACTORS; AGRICENTER,C1428X,0010000968,lamborghini_api
Deutz-Fahr; Lamborghini Trattori; SAME; Gregoire,FERT MATERIELS SARL - SORGUES,"1220, route de Chateauneuf Pape",SORGUES,France,FR,84700,44.0276,4.86412,04 90 32 18 77,,christophe@fertmateriels.com,www.fertmateriels.com,Dealer Branch,PARTS; SERVICE; TRACTORS; AGRICENTER,C28X,0010000968,lamborghini_api
Deutz-Fahr; Lamborghini Trattori; SAME; Gregoire,FERT MATERIELS SARL-1,"104, route d'Orange",SAINTE CECILE LES VIGNES,France,FR,84290,44.2325947,4.88147919,04 90 30 82 88,,christophe@fertmateriels.com,www.fertmateriels.com,Dealer,PARTS; SERVICE; TRACTORS; AGRICENTER,C29X,0010000968,lamborghini_api
SAME,FOLTZER SAS,"Vadina, GHISONACCIA 20240",GHISONACCIA,,FR,20240,42.068000,9.447500,04 95 56 52 50,,,,,PARTS; SERVICE; TRACTORS; AGRICENTER,2760,,same_nuxt_fr-fr
Deutz-Fahr; Lamborghini Trattori; SAME,GAUTHIER AGRICULTURE SARL,La Condamine,RECOUBEAU JANSAC,France,FR,26310,44.6575745,5.4138927,04 75 21 32 51,,gauthier.agriculture@wanadoo.fr,,Dealer,PARTS; SERVICE; TRACTORS,C1995X,0010001911,lamborghini_api
Lamborghini Trattori,GAYRAL JEAN-MARC EURL,Avenue Lagast,DURENQUE,France,FR,12170,44.1116071,2.6184791,05 65 46 57 91,,gayraljeanmarc@orange.fr,,Dealer,PARTS; SERVICE; TRACTORS,C857X,0010001785,lamborghini_api
Deutz-Fahr; Lamborghini Trattori; SAME; GreenPro,GUYONNET JEAN-LOUIS SAS,"5, rue de l Industrie ZA les places",CIVENS,France,FR,42110,45.7718149,4.217893,04 77 26 24 02,,sarl.guyonnet@wanadoo.fr,www.guyonnet-agri.com,Dealer,PARTS; SERVICE; TRACTORS,C5636X,0010000855,lamborghini_api
SAME,LACROIX MOTOCULTURE,"52, route de la monnaie Thièze, FETERNES 74500",FETERNES,,FR,74500,46.357900,6.547650,04 50 73 46 79,,,,,PARTS; SERVICE; TRACTORS,2767,,same_nuxt_fr-fr
Lamborghini Trattori; SAME,LANDAIS,"2, rue de l'église",SAINT GERMAIN D'ARCE,France,FR,72800,47.6229,0.292088,02 43 46 16 15,,maximilien.derouault@etslandais.fr,,Dealer,PARTS; SERVICE; TRACTORS,C4044X,0010003391,lamborghini_api
SAME,LAUNAY SARL,"2, rue de la Colmont, BRÉCÉ 53120",BRÉCÉ,,FR,53120,48.397294,-0.790211,02 43 08 61 05,,,www.launay-ets.fr,,PARTS; SERVICE; TRACTORS,2782,,same_nuxt_fr-fr
SAME,LAUNAY SARL - MONTIGNE LE BRILLANT,"ZA du haut chêne, MONTIGNE LE BRILLANT 53970",MONTIGNE LE BRILLANT,,FR,53970,48.019002,-0.823411,02 43 68 90 46,,,www.launay-ets.fr,,PARTS; SERVICE; TRACTORS,1538,,same_nuxt_fr-fr
SAME,LAUNAY SARL - ST PIERRE DES LANDES,"RN 12 Mégaudais, SAINT PIERRE DES LANDES 53500",SAINT PIERRE DES LANDES,,FR,53500,48.306019,-0.996275,02 43 05 21 50,,,www.launay-ets.fr,,PARTS; SERVICE; TRACTORS,1537,,same_nuxt_fr-fr
SAME,LE BOURBASQUET SAS,"Za de Kerboulard 4 rue Jean Guyomarc'h, SAINT NOLFF 56250",SAINT NOLFF,,FR,56250,47.694167,-2.640853,02 97 53 31 30,,,www.lebourbasquet.fr,,PARTS; SERVICE; TRACTORS,2739,,same_nuxt_fr-fr
SAME,LE BOURBASQUET SAS - SEVERAC,"9, route de la Normandais, SEVERAC 44530",SEVERAC,,FR,44530,47.557437,-2.054823,02 40 51 18 25,,,,,PARTS; SERVICE; TRACTORS,6076,,same_nuxt_fr-fr
SAME,LEBEURRIER SAS,"1, rue de la Gollerie, PERCY 50410",PERCY,,FR,50410,48.911700,-1.195040,02 33 61 21 24,,,www.lebeurrier.com,,PARTS; SERVICE; TRACTORS,2737,,same_nuxt_fr-fr
SAME,LEBEURRIER SAS - DUCEY,"Le Clos Léger, DUCEY 50220",DUCEY,,FR,50220,48.618168,-1.263478,02 33 48 43 11,,,www.lebeurrier.com,,PARTS; SERVICE; TRACTORS,2845,,same_nuxt_fr-fr
SAME,LEBEURRIER SAS - ST SAUVEUR LE VICOMTE,"Z.A. de l'Abbaye, SAINT SAUVEUR LE VICOMTE 50390",SAINT SAUVEUR LE VICOMTE,,FR,50390,49.381315,-1.531759,02 33 41 66 81,,,www.lebeurrier.com,,PARTS; SERVICE; TRACTORS,2844,,same_nuxt_fr-fr
Deutz-Fahr; Lamborghini Trattori; SAME,LGS AGRI SAS,"64Ter, Av Edouard Vaillant",PUY GUILLAUME,France,FR,63290,45.953003,3.477281,04 15 98 02 27,,nicolas@guyonnet-agri.com,,Dealer,PARTS; SERVICE; TRACTORS; AGRICENTER,C4604X,0010003533,lamborghini_api
SAME,MAISA SAS,"274, avenue des Fusillés – CS 24029. Saint Lamb, SAUMUR 49406",SAUMUR,,FR,24029,47.284500,-0.049946,02 41 40 25 30,,,www.maisa.fr,,PARTS; SERVICE; TRACTORS,2736,,same_nuxt_fr-fr
SAME,MALECOT POIRIER AGRI SAS - CREZANCY,"Les Bruyères, CREZANCY 18300",CREZANCY,,FR,18300,47.311918,2.751925,02 48 79 02 30,,,www.malecotpoirier.fr,,PARTS; SERVICE; TRACTORS,2840,,same_nuxt_fr-fr
SAME,MALECOT POIRIER AGRI SAS - LIGNY-LE-CHATEL,"Avenue de Chablis, LIGNY-LE-CHATEL 89144",LIGNY-LE-CHATEL,,FR,89144,47.892448,3.758871,03 86 47 43 62,,,,,PARTS; SERVICE; TRACTORS,2870,,same_nuxt_fr-fr
SAME,MALECOT POIRIER AGRI SAS - SAINT LOUP,"17, Route de la Detorbe, SAINT LOUP 58200",SAINT LOUP,,FR,58200,47.432761,3.013408,03 86 26 24 49,,,www.malecotpoirier.fr,,PARTS; SERVICE; TRACTORS,2874,,same_nuxt_fr-fr
SAME,MALECOT POIRIER AGRI SAS - SAINT-HILAIRE-EN-MORVAN,"ZA la Croix de Chaligny, SAINT-HILAIRE-EN-MORVAN 58120",SAINT-HILAIRE-EN-MORVAN,,FR,58120,47.064189,3.886007,03 86 76 16 87,,,www.malecotpoirier.fr,,PARTS; SERVICE; TRACTORS,2852,,same_nuxt_fr-fr
SAME,MALECOT POIRIER AGRI SAS - VARENNES-VAUZELLES,"ZI, Rue de la Bert, VARENNES-VAUZELLES 58640",VARENNES-VAUZELLES,,FR,58640,47.043156,3.133938,03 86 71 62 90,,,www.malecotpoirier.fr,,PARTS; SERVICE; TRACTORS,2841,,same_nuxt_fr-fr
SAME,MALECOT POIRIER AGRI SAS - VARZY,"5 Route de Corvol, VARZY 58210",VARZY,,FR,58210,47.369251,3.384266,03 71 55 00 76,,,www.malecotpoirier.fr,,PARTS; SERVICE; TRACTORS,2877,,same_nuxt_fr-fr
Lamborghini Trattori,MARSALEIX,Le bourg,SAINT BONNET L'ENFANTIER,France,FR,19410,45.3006,1.52322,05 55 73 72 05,,secretariat@marsaleix.fr,www.marsaleix-agri.com,Dealer,PARTS; SERVICE; TRACTORS,C5571X,0010000799,lamborghini_api
SAME,MAT AGRI 22,"ZA Les Dineux, TREMEUR 22250",TREMEUR,,FR,22250,48.345276,-2.285771,02 96 84 89 00,,,www.matagri-22.com,,PARTS; SERVICE; TRACTORS,2761,,same_nuxt_fr-fr
Deutz-Fahr; Lamborghini Trattori; SAME,MOREAU TECHNIQUE AGRICOLE SAS,ZA LES PETITES GRANGES,SAINT VICTURNIEN,France,FR,87420,45.8980004,1.0221179,05 55 03 11 33,,vincentmoreau@mtagri.fr,,Dealer,PARTS; SERVICE; TRACTORS,C4185X,0010003422,lamborghini_api
SAME,MORINEAU SARL,"R.D. 438, CHAILLOUÉ 61500",CHAILLOUÉ,,FR,61500,48.655652,0.195069,02 33 27 82 72,,,www.ets-morineau.fr,,PARTS; SERVICE; TRACTORS,2783,,same_nuxt_fr-fr
SAME,MORINEAU SARL - BELLEME,"Rue du collège, BELLEME 61130",BELLEME,,FR,61130,48.376651,0.561783,02 33 83 22 47,,,www.ets-morineau.fr,,PARTS; SERVICE; TRACTORS,2857,,same_nuxt_fr-fr
SAME,MORINEAU SARL - RAI,"2, rue Pierre Corneille, RAI 61270",RAI,,FR,61270,48.746900,0.548986,02 33 24 10 99,,,www.ets-morineau.fr,,PARTS; SERVICE; TRACTORS,2830,,same_nuxt_fr-fr
Deutz-Fahr; Lamborghini Trattori; SAME,NORD AGRI SARL,"27, route de Cambrai",SAINT-PYTHON,France,FR,59730,50.1865922,3.4757181,03 27 37 33 44,,nord-agri@wanadoo.fr,www.nord-agri.com,Dealer,PARTS; SERVICE; TRACTORS; AGRICENTER,C5693X,0010000896,lamborghini_api
Deutz-Fahr; Lamborghini Trattori; SAME,NORD AGRI SARL - BERTINCOURT,Petit chemin de Bapaume,BERTINCOURT,France,FR,62124,50.089488,2.983298,03 21 73 32 14,,nord-agri@wanadoo.fr,www.nord-agri.com,Dealer Branch,SERVICE; TRACTORS; AGRICENTER,C1438X,0010000896,lamborghini_api
Deutz-Fahr; Lamborghini Trattori; SAME,NORD AGRI SARL - BUSIGNY,28 rue du capitaine Mabile,BUSIGNY,France,FR,59137,50.0387589,3.4656273,03 27 85 70 85,,nord-agri@wanadoo.fr,www.nord-agri.com,Dealer Branch,SERVICE; TRACTORS; AGRICENTER,C5692X,0010000896,lamborghini_api
Deutz-Fahr; Lamborghini Trattori; SAME,NORD AGRI SARL - LANDRECIES,74 faubourg de France,LANDRECIES,France,FR,59550,50.118671,3.704245,03 27 77 99 12,,nord-agri@wanadoo.fr,www.nord-agri.com,Dealer Branch,SERVICE; TRACTORS; AGRICENTER,C5691X,0010000896,lamborghini_api
Deutz-Fahr; Lamborghini Trattori; SAME,PELLEGRIN,Manse,FOREST-SAINT-JULIEN,France,FR,05260,44.6334,6.13389,04 92 50 43 54,,sarlpellegrinetfils@gmail.com,,Dealer,PARTS; SERVICE; TRACTORS,C5540X,0010000775,lamborghini_api
Deutz-Fahr; Lamborghini Trattori; SAME,PELLEGRIN - LA BATI NEUVE,"150, chemin du Torrent des Tours",LA BATI NEUVE,France,FR,05230,44.5755809,6.17136389,04 92 50 25 90,,sarlpellegrinetfils@gmail.com,,Dealer Branch,SERVICE; TRACTORS,C905X,0010000775,lamborghini_api
Lamborghini Trattori; SAME,PERON SARL,REUN AR MOAL,DAOULAS,France,FR,29460,48.3486372,-4.2555317,02 98 25 86 02,,peron-ma@wanadoo.fr,,Dealer,PARTS; SERVICE; TRACTORS,C44X,0010000984,lamborghini_api
Deutz-Fahr; Lamborghini Trattori; SAME,PERRE ET BEYGNIER SARL,"19, route du Puy",ARSAC-EN-VELAY,France,FR,43700,44.9961509,3.9421,04 71 08 80 74,,ga@sarlperre.fr,www.sarlperre.fr,Dealer,PARTS; SERVICE; TRACTORS; AGRICENTER,C5638X,0010000856,lamborghini_api
Deutz-Fahr; Lamborghini Trattori; SAME,PERRE ET BEYGNIER SARL - MORIAT,Route de Lempdes sur Allagnon,MORIAT,France,FR,63340,45.3945348,3.2693027,04 71 76 52 44,,ga@sarlperre.fr,www.sarlperre.fr,Dealer Branch,PARTS; SERVICE; TRACTORS; AGRICENTER,C5637X,0010000856,lamborghini_api
Deutz-Fahr; Lamborghini Trattori,RABEUX,Route de Saulieu,BRASSY,France,FR,58140,47.2631652,3.9373941,03 86 22 24 97,,sarl-rabeux@wanadoo.fr,,Dealer,PARTS; SERVICE; TRACTORS,C5689X,0010000894,lamborghini_api
SAME,REGIONALE DE MATERIEL AGRICOLE (R.M.A.),"11, rue du Hil, NOYAL-CHATILLON SUR SEICHE 35230",NOYAL-CHATILLON SUR SEICHE,,FR,35230,48.094076,-1.780375,02 99 05 20 20,,,www.rma-agroequipement.com,,PARTS; SERVICE; TRACTORS,2764,,same_nuxt_fr-fr
SAME,ROM AGRI - ABBARETZ,"1, rue du Vivier Z.A. de la Croix Blanche, ABBARETZ 44170",ABBARETZ,,FR,44170,47.546395,-1.534371,02 40 87 06 25,,,www.romet.fr,,SERVICE; TRACTORS; AGRICENTER,2826,,same_nuxt_fr-fr
SAME,ROM AGRI - VARADES,"571, rue du Marechal Foch, VARADES 44370",VARADES,,FR,44370,47.386417,-1.037704,02 40 98 33 16,,,www.romet.fr,,SERVICE; TRACTORS; AGRICENTER,2825,,same_nuxt_fr-fr
Lamborghini Trattori,ROSIERES MACHINES AGRICOLES SARL,"Centre commercial, 145 Traverse Vernades",ROSIERES,France,FR,07260,44.4816665,4.2664325,04 75 39 52 41,,rosieresma@orange.fr,,Dealer,PARTS; SERVICE; TRACTORS,C5543X,0010000778,lamborghini_api
Lamborghini Trattori,ROSTAIND,Quartier Pezelier,SAINT-BASILE,France,FR,07270,44.9663433,4.5826688,04 75 06 42 29,,sarl.rostaind@wanadoo.fr,,Dealer,PARTS; SERVICE; TRACTORS,C5541X,0010000776,lamborghini_api
Deutz-Fahr; Lamborghini Trattori; SAME; Gregoire; ViTiBOT,RULLIER SUD PROVENCE,"ZA de Nicopolis 140, avenue des Romarins",BRIGNOLES,France,FR,83170,43.3939,6.14612,04 94 59 06 12,,w.mayot@grouperullier.fr,,Dealer,PARTS; SERVICE; TRACTORS; AGRICENTER,C908X,0010002515,lamborghini_api
Deutz-Fahr; Lamborghini Trattori; SAME; Gregoire; ViTiBOT,RULLIER SUD PROVENCE - LES ARCS SUR ARGENS,ZAC PONT ROUT,LES ARC SUR ARGENS,France,FR,83460,43.4489948,6.48614,04 94 73 00 01,,w.mayot@grouperullier.fr,,Dealer Branch,PARTS; SERVICE; TRACTORS,C2860X,0010002515,lamborghini_api
SAME,RÉUNION PIÈCES AGRICOLES,"3 Rue des Violettes, Saint-Benoit 97470",Saint-Benoit,,FR,97470,-21.055407,55.711563,0262 92 4077,,,www.reunionpiecesagricoles.fr,,PARTS; SERVICE; TRACTORS,3092,,same_nuxt_fr-fr
Deutz-Fahr; Lamborghini Trattori; SAME,SABATHE ET FILS,Route de Lombez,L'ISLE JOURDAIN,France,FR,32600,43.6069631,1.072256,05 62 07 03 74,,sabathe@wanadoo.fr,www.sabathe.com,Dealer,PARTS; SERVICE; TRACTORS,C5615X,0010000835,lamborghini_api
Deutz-Fahr; Lamborghini Trattori; SAME,SABATHE ET FILS - AUCH,ZI de l'Hippodrome 2 rue Federico Garcia Lorca,AUCH,France,FR,32000,43.6702468,0.6002604,05 62 05 79 62,,sabathe.auch@hotmail.fr,www.sabathe.com,Dealer Branch,PARTS; SERVICE; TRACTORS,C5614X,0010000835,lamborghini_api
SAME,SAER,"Chemin Baraque des Bois, AUMONT-AUBRAC 48130",AUMONT-AUBRAC,,FR,48130,44.709400,3.276320,04 66 42 81 52,,,,,PARTS; SERVICE; TRACTORS; AGRICENTER,2735,,same_nuxt_fr-fr
SAME,SAER - SAINT-FLOUR,"Z.A. de Volzac, SAINT-FLOUR 15100",SAINT-FLOUR,,FR,15100,45.024101,3.069045,04 71 23 40 45,,,,,PARTS; SERVICE; TRACTORS; AGRICENTER,2855,,same_nuxt_fr-fr
SAME,SALIN AGRICULTURE 53,"Route Villaines, LE HAM 53250",LE HAM,,FR,53250,48.379891,-0.372014,02 43 03 97 76,,,,,PARTS; SERVICE; TRACTORS,2738,,same_nuxt_fr-fr
SAME,SALIN AGRICULTURE 53 - ST CHRISTOPHE DE LUAT,"26 rue de la Mairie, SAINT CHRISTOPHE DE LUAT 53150",SAINT CHRISTOPHE DE LUAT,,FR,53150,48.130126,-0.461669,02 43 98 20 64,,,,,PARTS; SERVICE; TRACTORS,2846,,same_nuxt_fr-fr
SAME,SALIN AGRICULTURE 72 - JOUE EN CHARNIE,"La Gresille, JOUE EN CHARNIE 72540",JOUE EN CHARNIE,,FR,72540,48.019659,-0.165480,02 43 88 22 07,,,,,PARTS; SERVICE; TRACTORS,2831,,same_nuxt_fr-fr
Deutz-Fahr; Lamborghini Trattori; SAME; GreenPro,SAVAGRI SAS,La Cône,SAVIGNY SUR BRAYE,France,FR,41360,47.880891,0.797338999,02 54 23 70 36,,sarl-savagri@wanadoo.fr,www.savagri.fr,Dealer,PARTS; SERVICE; TRACTORS; AGRICENTER,C5632X,0010000851,lamborghini_api
Deutz-Fahr; Lamborghini Trattori; SAME,SAVAGRI SAS - DOLLON,13 Chemin de la Gare,DOLLON,FRANCE,FR,72390,48.0467429,0.5833488,02 54 23 70 36,,magasinsavigny@savagri.fr,,Dealer Branch,PARTS; SERVICE; TRACTORS; AGRICENTER,C3938X,0010000851,lamborghini_api
Deutz-Fahr; Lamborghini Trattori; SAME; GreenPro,SAVAGRI SAS - OUCQUES,Impasse des Chalands,OUCQUES,France,FR,41290,47.8158302,1.286184,02 54 80 51 27,,sarl-savagri-sl@orange.fr,www.savagri.fr,Dealer Branch,PARTS; SERVICE; TRACTORS; AGRICENTER,C5631X,0010000851,lamborghini_api
Lamborghini Trattori,SDMA Société de Distribution de Matériel Agricole,"805, avenue des Valayans",ENTRAIGUES SUR LA SORGUES,France,FR,84320,44.0021915,4.9499793,04 90 62 00 50,,sdma5@wanadoo.fr,www.sdma84.com,Dealer,PARTS; SERVICE; TRACTORS,C25X,0010000965,lamborghini_api
SAME,SERVIMAC,"47 Boulevard du Docteur Audureau Jallais, BEAUPREAU EN MAUGES 49510",BEAUPREAU EN MAUGES,,FR,49510,47.198500,-0.883036,02 41 64 11 27,,,www.service-agri.fr,,PARTS; SERVICE; TRACTORS; AGRICENTER,2957,,same_nuxt_fr-fr
SAME,SERVIMAC - CHEMILLE,"Z.A. du Bompas, CHEMILLE 49120",CHEMILLE,,FR,49120,47.208198,-0.717177,02 41 30 39 18,,,www.service-agri.fr,,PARTS; SERVICE; TRACTORS; AGRICENTER,2842,,same_nuxt_fr-fr
SAME,SERVIMAC - LA BRUFFIERE,"Z.I. des 4 Routes, LA BRUFFIERE 85530",LA BRUFFIERE,,FR,85530,46.998720,-1.166250,02 51 98 50 27,,,,,PARTS; SERVICE; TRACTORS,2864,,same_nuxt_fr-fr
Lamborghini Trattori; SAME,SG2 SARL,"8, rue Stendhal",ARLES,France,FR,13200,43.6802,4.60776,04 90 96 07 08,,jonquet2@wanadoo.fr,,Dealer,PARTS; SERVICE; TRACTORS; AGRICENTER,C5562X,0010000791,lamborghini_api
Deutz-Fahr; Lamborghini Trattori; SAME,SMAAR,Z.A. du Piol,MAZAN,France,FR,84380,44.0603475,5.1144232,04 90 69 61 24,,info@smaar.fr,,Dealer,PARTS; SERVICE; TRACTORS,C24X,0010000964,lamborghini_api
Deutz-Fahr; Lamborghini Trattori; SAME,SN CIAM,3280 avenue de Prades,PERPIGNAN,France,FR,66000,42.6913,2.8365,04 68 85 13 22,,amorcillo@ciam-sa.com,www.ciam-agriculture-perpignan.fr,Dealer,PARTS; SERVICE; TRACTORS,C5719X,0010000920,lamborghini_api
Deutz-Fahr; Lamborghini Trattori; SAME,SN CIAM - CAZOULS-LES-BEZIERS,"2, avenue Pierre et Marie Curie",CAZOULS-LES-BEZIERS,France,FR,34370,43.386002,3.114071,04 67 93 58 89,,amorcillo@ciam-sa.com,www.ciam-agriculture-perpignan.fr,Dealer Branch,PARTS; SERVICE; TRACTORS,C1442X,0010000920,lamborghini_api
Lamborghini Trattori,SN CIAM - CLERMONT L'HERAULT,ZAC de la Salamane,CLERMONT L'HERAULT,France,FR,34800,43.6116036,3.4637429,-,,amorcillo@ciam-sa.com,,Dealer Branch,SERVICE; TRACTORS,C3846X,0010000920,lamborghini_api
Deutz-Fahr; Lamborghini Trattori; SAME,SN CIAM - ELNE,"1, rue Nicolas Appert",ELNE,France,FR,66200,42.607522,2.9796117,04 68 22 06 27,,amorcillo@ciam-sa.com,www.ciam-agriculture-perpignan.fr,Dealer Branch,PARTS; SERVICE; TRACTORS,C5718X,0010000920,lamborghini_api
Deutz-Fahr; Lamborghini Trattori; SAME,SN CIAM - LEZIGNAN CORBIERES,"7, rue Gustave Eiffel Z.I. Gaujac",LEZIGNAN CORBIERES,France,FR,11200,43.185486,2.7502889,04 68 41 49 49,,amorcillo@ciam-sa.com,www.romerales.fr,Dealer Branch,PARTS; SERVICE; TRACTORS,C1443X,0010000920,lamborghini_api
Deutz-Fahr; Lamborghini Trattori; SAME,SN CIAM - LIMOUX,Z.A. du Razes,LIMOUX,France,FR,11300,43.0773391,2.22163,04 68 31 09 76,,amorcillo@ciam-sa.com,www.romerales.fr,Dealer Branch,PARTS; SERVICE; TRACTORS,C1121X,0010000920,lamborghini_api
Deutz-Fahr; Lamborghini Trattori; SAME,SN CIAM - NARBONNE,16 RUE ANTOINE BECQUEREL,NARBONNE,France,FR,11100,43.1558609,2.9806017,04 68 41 20 11,,amorcillo@ciam-sa.com,www.romerales.fr,Dealer Branch,PARTS; SERVICE; TRACTORS,C1441X,0010000920,lamborghini_api
Lamborghini Trattori,SN CIAM - PEZENAS,"1, rue Paul Guéry ZA Les Rodettes",PEZENAS,FRANCE,FR,34120,43.4483018,3.4163621,04 67 98 19 00,,amorcillo@ciam-sa.com,,Dealer Branch,PARTS; SERVICE; TRACTORS,C3845X,0010000920,lamborghini_api
SAME,SODEMAGRI SAS,"Zone Artisanale, Route de Domfront, CEAUCE 61330",CEAUCE,,FR,61330,48.501260,-0.630544,02 33 38 33 58,,,www.sodemagri.com,,PARTS; SERVICE; TRACTORS,2741,,same_nuxt_fr-fr
SAME,SODEMAGRI SAS - SAINT GEORGES DES GROSEILLERS,"Z.A. de la Valette Route d'Aubusson, SAINT GEORGES DES GROSEILLERS 61100",SAINT GEORGES DES GROSEILLERS,,FR,61100,48.774613,-0.564028,02 33 64 97 40,,,www.sodemagri.com,,PARTS; SERVICE; TRACTORS,2847,,same_nuxt_fr-fr
Deutz-Fahr; Lamborghini Trattori,SOMAREF SARL,53 Route de la Ferrière LE BAS AGET,POMPORT,FRANCE,FR,24 240,44.8144036,0.4348853,05 53 57 30 46,,pautriben2433@gmail.com,,Dealer,PARTS; SERVICE; TRACTORS; AGRICENTER,C5934X,0010003621,lamborghini_api
SAME,SOUSLIKOFF & CIE,"2 route de Queyzans, SAINT YZANS DE MEDOC 33 340",SAINT YZANS DE MEDOC 33 340,,FR,,45.324921,-0.822193,05 56 09 05 07,,,,,PARTS; SERVICE; TRACTORS; AGRICENTER,2796,,same_nuxt_fr-fr
Deutz-Fahr; Lamborghini Trattori,THOUARD SAS,"2, rue du Grand Chène",LE SEURE,France,FR,17770,45.7877604,-0.364012,05 46 94 91 45,,-,,Dealer,PARTS; SERVICE; TRACTORS; AGRICENTER,C5567X,0010000796,lamborghini_api
Deutz-Fahr; Lamborghini Trattori; SAME,TIFFAY,"270, rue de Verdun",DOMBASLE EN ARGONNE,France,FR,55120,49.1354,5.19485,03 29 86 81 94,,sarl@tiffay.net,www.tiffay.net,Dealer,PARTS; SERVICE; TRACTORS,C5677X,0010000886,lamborghini_api
Deutz-Fahr; Lamborghini Trattori; SAME,TIFFAY - SOMME TOURBE,"30 bis, voie de la Liberté",SOMME TOURBE,,FR,51600,49.1010664,4.6720758,03 29 86 81 94,,sarl@tiffay.net,,Dealer Branch,PARTS; SERVICE; TRACTORS,C25C,0010000886,lamborghini_api
SAME,VAL'AGRI,"Z.A. la Baisse de Sainte-Anne, VALENSOLE 04210",VALENSOLE,,FR,04210,43.841697,5.980259,04 92 74 88 04,,,www.valagri04.fr,,PARTS; SERVICE; TRACTORS; AGRICENTER,2876,,same_nuxt_fr-fr
SAME,VITIDIS SAS,"10 rue des Champs Seguin, JARNAC 16200",JARNAC,,FR,16200,45.683592,-0.157143,05 45 83 48 48,,,http://www.vitidis.fr,,TRACTORS,2568,,same_nuxt_fr-fr
SAME,VITIDIS SAS - SAINT MARTIAL DE VITATERNE,"1 ZA CHEMIN VERT, SAINT-MARTIAL-DE-VITATERNE 17500",SAINT-MARTIAL-DE-VITATERNE,,FR,17500,45.458306,-0.442316,05 46 86 12 56,,,www.vitidis.fr,,PARTS; SERVICE; TRACTORS; AGRICENTER,1362,,same_nuxt_fr-fr
SAME,BLAKEWELL SERVICES LTD,"Parkside Newport Road, BARNSTAPLE EX32 9BA",BARNSTAPLE,,GB,EX32 9BA,51.074111,-4.051859,01271 375 947,,,www.blakewellservices.co.uk,,PARTS; SERVICE; TRACTORS,2647,,same_nuxt_en-gb
SAME,BRAEWICK AGRI SERVICES,"BRAEWICK, ESHANESS ZE2 9RS",ESHANESS,,GB,ZE2 9RS,60.494901,-1.567948,07979274787,,,www.braewickagri.co.uk,,PARTS; SERVICE; TRACTORS,6030,,same_nuxt_en-gb
SAME,CHESHIRE FARM MACHINERY LTD,"Grange Farm, Millington Lane,, Gorstage CW8 2SU",Gorstage,,GB,CW8 2SU,53.251470,-2.592444,01925 730075,,,,,PARTS; SERVICE; TRACTORS; AGRICENTER,2636,,same_nuxt_en-gb
SAME,CLWYD AGRICULTURAL LTD,"Terfyn Buildings, Caerwys Road, Cwn/Dyserth, Rhyl, CLWYD LL18 6HT",CLWYD,,GB,LL18 6HT,53.293430,-3.377789,01745 571018,,,,,PARTS; SERVICE; TRACTORS,2656,,same_nuxt_en-gb
SAME,Cavan Autotrac Limited,"Derrycramph, Cavan H12 FR84",Cavan H12 FR84,,GB,,53.987515,-7.387756,049 4361716,,,www.cavanautotrac.ie,,PARTS; SERVICE; TRACTORS,2743,,same_nuxt_en-gb
Deutz-Fahr; Lamborghini Trattori; SAME,G.BRYAN JONES,LOVE LANE INDUSTRIAL ESTATE,BISHOPS CASTLE,SH,GB,SY9 5DW,52.4910978,-2.9916989,01588 638 647,,sales@gbjones.co.uk,www.gbryanjones.co.uk,Dealer,PARTS; SERVICE; TRACTORS,C506X,0010001440,lamborghini_api
SAME,GA ALLEN LIMITED T\u002FA GA ALLEN,"131 Grovehill Road, Banbridge BT32 5AB",Banbridge,,GB,BT32 5AB,54.285236,-6.255105,028 40651303,,,www.gaallen.com,,PARTS; SERVICE; TRACTORS,2726,,same_nuxt_en-gb
Deutz-Fahr; Lamborghini Trattori; SAME,GRIFFITH AI GWMNI CYF,"Gwar Rhos, RHOSFFAWR","PWLLHELI, GWYNEDD",,GB,LL53 6NF,52.9333,-4.40054,01766 810 334,,gagcsales@gmail.com,,Dealer,PARTS; SERVICE; TRACTORS,C483X,0010001418,lamborghini_api
SAME,HARDWICK AGRIC.ENGINEERS LTD.,"Main Road Garage, BROMPTON BY SAWDON, BROMPTON-BY-SAWDON, SCARBOROUG YO13 9DP",SCARBOROUG,,GB,YO13 9DP,54.227883,-0.548402,01723 859785,,,www.hardwickagricultural.co.uk,,PARTS; SERVICE; TRACTORS; AGRICENTER,2640,,same_nuxt_en-gb
SAME,HUNTER KANE & SON,"BALLINTOY, BALLYCASTLE BT54 6NG",BALLYCASTLE,,GB,BT54 6NG,55.215347,-6.375375,02820 762 613,,,www.hunterkaneandson.com,,PARTS; SERVICE; TRACTORS; AGRICENTER,2915,,same_nuxt_en-gb
SAME,Huw Evans & Sons Ltd,"Unit3, Oaklands Farm,  Bagley Ellesmere Shropshire, Ellesmere SY12 9BW",Ellesmere,,GB,SY12 9BW,52.847762,-2.894468,01939 270488,,,,,PARTS; SERVICE; TRACTORS,542,,same_nuxt_en-gb
Deutz-Fahr; Lamborghini Trattori; SAME,J.B.BARRETT (TRACTORS),33A Corragina Road Tattysallagh,OMAGH,,GB,BT78 5BN,54.5592869,-7.39888949,02882 243 134,,accounts@jbbarretttractors.com,,Dealer,PARTS; SERVICE; TRACTORS,C473X,0010001409,lamborghini_api
SAME,J.M Coles Ltd,"Brent House Farm Works, Edingworth Road, Edingworth BS24 0JA",Edingworth,,GB,BS24 0JA,51.276321,-2.931813,01934750104,,,,,PARTS; SERVICE; TRACTORS,709,,same_nuxt_en-gb
SAME,JACOBS SERVICE STATION LTD,"KILGLASS, ENNISCRONE MAC",ENNISCRONE MAC,,GB,,54.243068,-9.054347,00353 963 6148,,,,,PARTS; SERVICE; TRACTORS; AGRICENTER,2757,,same_nuxt_en-gb
SAME,JAMES HAYES MACHINERY LTD,"CLONOULTY, CASHEL TIB",CASHEL TIB,,GB,,52.606079,-7.957850,00353 504 42259,,,www.hayesagri.com,,PARTS; SERVICE; TRACTORS; AGRICENTER,2756,,same_nuxt_en-gb
SAME,JOHN KERR FARM EQUIPMENT,"Wilcoxholm, EDINBURGH ROAD, LINLITHGOW EH49 6QT",LINLITHGOW,,GB,EH49 6QT,55.976600,-3.602560,01506 842280,,,,,PARTS; SERVICE; TRACTORS; AGRICENTER,2622,,same_nuxt_en-gb
SAME,MARK WATSON T\u002FA WATSON MACHINERY,"Blackfield Farm, Inkerman, Tow Law, Bishop Auckland DL13 4QA",Bishop Auckland,,GB,DL13 4QA,54.752460,-1.825276,01388 730528,,,https://www.watsonmachinery.com/home,,PARTS; SERVICE; TRACTORS,2725,,same_nuxt_en-gb
SAME,MJ FRY AGRICULTURAL ENGINEERING (Higher Woodsford),"Higher Woodford, Dorchester DT2 8BL",Dorchester,,GB,DT2 8BL,50.701997,-2.334025,01305 853900,,,http://www.mjfry.co.uk,,PARTS; SERVICE; TRACTORS; AGRICENTER,2766,,same_nuxt_en-gb
SAME,MSW Engineering,"New Inn Cross, Beaworthy EX21 5SN",Beaworthy,,GB,EX21 5SN,50.857372,-4.212020,01409 281616,,,http://www.mswengineering.co.uk/,,PARTS; SERVICE; TRACTORS,2894,,same_nuxt_en-gb
SAME,PALLISERS OF HEREFORD,"ACORN PARK YARKHILL, HEREFORD, HEREFORDSHIRE HR1 3SX",HEREFORDSHIRE,,GB,HR1 3SX,52.091463,-2.577319,01432 890300,,,www.pallisers.co.uk,,PARTS; SERVICE; TRACTORS; AGRICENTER,2891,,same_nuxt_en-gb
SAME,Paul Jeffery Agriculture,"4 Beacon View Penhallow, Truro TR4 9LS",Truro,,GB,TR4 9LS,50.320488,-5.135744,01872 571654,,,,,PARTS; SERVICE; TRACTORS,2616,,same_nuxt_en-gb
SAME,S. R. Hunt & Sons,"Awel Wen Penwuch Tregaron Ceredigion, Tregaron SY25 6QZ",Tregaron,,GB,SY25 6QZ,52.241100,-4.055460,01974 821540,,,,,PARTS; SERVICE; TRACTORS,543,,same_nuxt_en-gb
SAME,THOMAS CAIRNIE & SON LTD,"KIRKMAHOE, DUMFRIES DG1 1TE",DUMFRIES,,GB,DG1 1TE,55.137300,-3.629090,01387 710285,,,,,PARTS; SERVICE; TRACTORS,4246,,same_nuxt_en-gb
SAME,TOM SHAW FARM MACHINERY LTD.,"DROMOYLE, BIRR OFF",BIRR OFF,,GB,,53.049483,-7.818243,00353 5791 31147,,,www.tsfm.ie,,PARTS; SERVICE; TRACTORS; AGRICENTER,2754,,same_nuxt_en-gb
SAME,TUNSTALL TRACTORS LTD,"RAVENSTONEDALE, KIRKBY STEPHEN CA17 4LN",KIRKBY STEPHEN,,GB,CA17 4LN,54.410000,-2.432610,01539 620636,,,www.tunstalltractors.com,,PARTS; SERVICE; TRACTORS; AGRICENTER,2641,,same_nuxt_en-gb
SAME,WILLIAM KERR TRACTORS LTD,"MOSSHILL, BY AYR KA6 6AJ",BY AYR,,GB,KA6 6AJ,55.442900,-4.629280,01292 267 376,,,,,PARTS; SERVICE; TRACTORS; AGRICENTER,2812,,same_nuxt_en-gb
Deutz-Fahr; Lamborghini Trattori,D&S GROUP LTD,6 RIGHT EMBANKMENT,TBILISI,,GE,0108,41.7774,44.7644,+995 32 283 08 88,,ltd_dsgroup@yahoo.com,,Importer,PARTS; SERVICE; TRACTORS,C841X,0010001767,lamborghini_api
Lamborghini Trattori,DEMETER S.A. -  Larisa,7th km. Larisa-Farsala Road,Larisa,0,GR,41335,39.2955,22.3845,-,,-,,Importer branch,PARTS; SERVICE; TRACTORS,C1728X,0010000185,lamborghini_api
Lamborghini Trattori,DEMETER S.A. - Thessaloniki,"Egnatia odos, Komvos Ionias, Diavat",Thessaloniki,Greece,GR,57008,38.0103,23.7192,-,,thessaloniki@demeter.gr,,Affiliated Dealer,PARTS; SERVICE; TRACTORS,C1727X,0020000972,lamborghini_api
